Time,header.seq,header.stamp.secs,header.stamp.nsecs,pose.position.x,pose.position.y,pose.position.z,pose.orientation.x,pose.orientation.y,pose.orientation.z,pose.orientation.w,twist.linear.x,twist.linear.y,twist.linear.z,twist.angular.x,twist.angular.y,twist.angular.z
1678956296,1,1678956295,441857000,-0.000558092,-0.000222475,-0.000599435,-0.388840228,-0.000440938,-0.000978956,0.921304643,-0.007495367,0.05218371,-0.034918509,0.018201631,0.04188858,0.064089134
1678956296,2,1678956295,549505000,-0.000681447,-0.00052111,-0.000171947,-0.388815641,-0.000794145,-0.000817659,0.921314895,-0.008969636,-0.005581591,-0.005221067,0.023115106,-0.015686955,0.047809597
1678956296,3,1678956295,650950000,-0.000456003,-0.000109549,0.000554888,-0.388662696,-0.000928546,-0.000866691,0.921379328,-0.001032325,0.000216585,0.00412438,-0.052900627,0.009464523,0.007934465
1678956296,4,1678956295,650950000,-0.000456003,-0.000109549,0.000554888,-0.388662696,-0.000928546,-0.000866691,0.921379328,-0.001032325,0.000216585,0.00412438,-0.052900627,0.009464523,0.007934465
1678956296,5,1678956295,666469000,-0.000452943,7.49E-05,0.000622606,-0.388699681,-0.000909603,-0.000839459,0.921363711,0.000800129,0.018626163,0.006653803,0.087574959,-0.0086707,0.00526457
1678956296,6,1678956295,666469000,-0.000452943,7.49E-05,0.000622606,-0.388699681,-0.000909603,-0.000839459,0.921363711,0.000800129,0.018626163,0.006653803,0.087574959,-0.0086707,0.00526457
1678956296,7,1678956295,666469000,-0.000452943,7.49E-05,0.000622606,-0.388699681,-0.000909603,-0.000839459,0.921363711,0.000800129,0.018626163,0.006653803,0.087574959,-0.0086707,0.00526457
1678956296,8,1678956295,674781000,-0.000439581,0.000319828,0.000697336,-0.388509184,-0.001031454,-0.000806006,0.921443939,0.001877121,0.030068342,0.008427277,-0.051824365,0.019093977,0.015989812
1678956296,9,1678956295,674781000,-0.000439581,0.000319828,0.000697336,-0.388509184,-0.001031454,-0.000806006,0.921443939,0.001877121,0.030068342,0.008427277,-0.051824365,0.019093977,0.015989812
1678956296,10,1678956295,681002000,-0.000495215,-0.000294376,0.000332686,-0.388526589,-0.001038254,-0.000765649,0.921436608,-0.003998934,-0.02439338,-0.009326736,0.09872061,0.04410208,-0.014902974
1678956296,11,1678956295,681002000,-0.000495215,-0.000294376,0.000332686,-0.388526589,-0.001038254,-0.000765649,0.921436608,-0.003998934,-0.02439338,-0.009326736,0.09872061,0.04410208,-0.014902974
1678956296,12,1678956295,692914000,-0.000517868,-0.000450933,0.000278741,-0.388223141,-0.000951672,-0.000768624,0.921564579,-0.005008708,-0.033534322,-0.011959068,0.053932257,0.018385466,0.007710888
1678956296,13,1678956295,692914000,-0.000517868,-0.000450933,0.000278741,-0.388223141,-0.000951672,-0.000768624,0.921564579,-0.005008708,-0.033534322,-0.011959068,0.053932257,0.018385466,0.007710888
1678956296,14,1678956295,692914000,-0.000517868,-0.000450933,0.000278741,-0.388223141,-0.000951672,-0.000768624,0.921564579,-0.005008708,-0.033534322,-0.011959068,0.053932257,0.018385466,0.007710888
1678956296,15,1678956295,698993000,-0.000545184,-0.000519331,0.000325116,-0.388780147,-0.001076542,-0.000795676,0.921329558,-0.003433255,-0.011574005,0.003033743,-0.04486547,-0.063478537,-0.010799197
1678956296,16,1678956295,700858000,-0.000561844,-0.000565405,0.000356016,-0.388601035,-0.001157245,-0.000865743,0.921404958,-0.003314825,-0.007441644,0.007805131,0.143129408,0.00706456,-0.021746704
1678956296,17,1678956295,707284000,-0.000577959,-0.000590506,0.000414381,-0.388497084,-0.001021134,-0.000882047,0.921449006,-0.003197578,-0.003181959,0.01283323,-0.146673754,0.063919738,-0.025082663
1678956296,18,1678956295,707284000,-0.000577959,-0.000590506,0.000414381,-0.388497084,-0.001021134,-0.000882047,0.921449006,-0.003197578,-0.003181959,0.01283323,-0.146673754,0.063919738,-0.025082663
1678956296,19,1678956295,715025000,-0.000448727,-0.00025616,9.64E-05,-0.38848716,-0.001037619,-0.000884554,0.921453118,0.000105454,-0.006730803,-0.021311693,0.112160929,-0.036967676,-0.013485651
1678956296,20,1678956295,715025000,-0.000448727,-0.00025616,9.64E-05,-0.38848716,-0.001037619,-0.000884554,0.921453118,0.000105454,-0.006730803,-0.021311693,0.112160929,-0.036967676,-0.013485651
1678956296,21,1678956295,723169000,-0.000448129,-0.000295538,-2.11E-05,-0.3884238,-0.001070629,-0.000924652,0.921479762,0.000168245,-0.008610571,-0.025506582,-0.031240869,-0.016064897,0.021472374
1678956296,22,1678956295,723169000,-0.000448129,-0.000295538,-2.11E-05,-0.3884238,-0.001070629,-0.000924652,0.921479762,0.000168245,-0.008610571,-0.025506582,-0.031240869,-0.016064897,0.021472374
1678956296,23,1678956295,735286000,-0.000483278,-0.000368538,-4.38E-05,-0.38866058,-0.001022229,-0.000816851,0.921380103,-0.002561548,-0.006683947,-0.004044076,0.085093893,-0.01651763,-0.00659404
1678956296,24,1678956295,741616000,-0.000485955,-0.000346349,-7.39E-05,-0.388557792,-0.001100956,-0.00086219,0.921423376,-0.001445777,0.000793064,-0.004685725,-0.021897469,-0.039492417,-0.004930417
1678956296,25,1678956295,748315000,-0.000492848,-0.000335867,-9.49E-05,-0.388668895,-0.001147558,-0.000915714,0.921376348,-0.001306052,0.003651019,-0.003486568,-0.025023077,-0.008500835,-0.024291959
1678956296,26,1678956295,748315000,-0.000492848,-0.000335867,-9.49E-05,-0.388668895,-0.001147558,-0.000915714,0.921376348,-0.001306052,0.003651019,-0.003486568,-0.025023077,-0.008500835,-0.024291959
1678956296,27,1678956295,748315000,-0.000492848,-0.000335867,-9.49E-05,-0.388668895,-0.001147558,-0.000915714,0.921376348,-0.001306052,0.003651019,-0.003486568,-0.025023077,-0.008500835,-0.024291959
1678956296,28,1678956295,748315000,-0.000492848,-0.000335867,-9.49E-05,-0.388668895,-0.001147558,-0.000915714,0.921376348,-0.001306052,0.003651019,-0.003486568,-0.025023077,-0.008500835,-0.024291959
1678956296,29,1678956295,762642000,-0.000493262,-0.000295061,0.000512806,-0.38876,-0.001100127,-0.000996189,0.921337903,4.64E-05,0.005275618,0.009242679,0.047159411,-0.006074202,0.043813806
1678956296,30,1678956295,765359000,-0.000491915,-0.000228627,0.000589148,-0.388637751,-0.001184205,-0.000915932,0.921389461,0.000419833,0.009110613,0.012063819,-0.009536251,-0.013628347,0.019236883
1678956296,31,1678956295,770340000,-0.000484064,-0.000117291,0.00072104,-0.388662159,-0.001117554,-0.000960843,0.921379149,0.001148687,0.013201964,0.014842843,0.083625928,0.004799675,0.015583009
1678956296,32,1678956295,770340000,-0.000484064,-0.000117291,0.00072104,-0.388662159,-0.001117554,-0.000960843,0.921379149,0.001148687,0.013201964,0.014842843,0.083625928,0.004799675,0.015583009
1678956296,33,1678956295,770340000,-0.000484064,-0.000117291,0.00072104,-0.388662159,-0.001117554,-0.000960843,0.921379149,0.001148687,0.013201964,0.014842843,0.083625928,0.004799675,0.015583009
1678956296,34,1678956295,777660000,-0.00050497,-7.49E-05,0.000727204,-0.388568044,-0.001147034,-0.000891197,0.921418965,-0.001669193,0.014053816,0.008749956,-0.054767806,0.004702961,0.018811744
1678956296,35,1678956295,783123000,-0.000510302,-0.0003688,0.000289293,-0.388961643,-0.001240257,-0.000884164,0.921252728,-0.003247711,-0.006438695,-0.009934551,-0.013227373,-0.023958771,-0.002306458
1678956296,36,1678956295,783123000,-0.000510302,-0.0003688,0.000289293,-0.388961643,-0.001240257,-0.000884164,0.921252728,-0.003247711,-0.006438695,-0.009934551,-0.013227373,-0.023958771,-0.002306458
1678956296,37,1678956295,783123000,-0.000510302,-0.0003688,0.000289293,-0.388961643,-0.001240257,-0.000884164,0.921252728,-0.003247711,-0.006438695,-0.009934551,-0.013227373,-0.023958771,-0.002306458
1678956296,38,1678956295,783123000,-0.000510302,-0.0003688,0.000289293,-0.388961643,-0.001240257,-0.000884164,0.921252728,-0.003247711,-0.006438695,-0.009934551,-0.013227373,-0.023958771,-0.002306458
1678956296,39,1678956295,783123000,-0.000510302,-0.0003688,0.000289293,-0.388961643,-0.001240257,-0.000884164,0.921252728,-0.003247711,-0.006438695,-0.009934551,-0.013227373,-0.023958771,-0.002306458
1678956296,40,1678956295,798204000,-0.000528842,-0.000408119,0.000212977,-0.388724446,-0.001297939,-0.000908209,0.921352684,-0.003972895,-0.007998953,-0.01358843,0.179829434,0.005512548,-0.001945723
1678956296,41,1678956295,800334000,-0.000589051,-0.00064287,1.97E-05,-0.38902992,-0.001232855,-0.000751514,0.921223998,-0.005031761,-0.018015185,-0.016506927,-0.050250817,-0.036386773,0.004165627
1678956296,42,1678956295,800334000,-0.000589051,-0.00064287,1.97E-05,-0.38902992,-0.001232855,-0.000751514,0.921223998,-0.005031761,-0.018015185,-0.016506927,-0.050250817,-0.036386773,0.004165627
1678956296,43,1678956295,800334000,-0.000589051,-0.00064287,1.97E-05,-0.38902992,-0.001232855,-0.000751514,0.921223998,-0.005031761,-0.018015185,-0.016506927,-0.050250817,-0.036386773,0.004165627
1678956296,44,1678956295,813014000,-0.000605893,-0.000692176,-9.65E-05,-0.389051944,-0.001299254,-0.000819869,0.921214521,-0.004168665,-0.013659665,-0.022459267,0.012091826,-0.029851994,-0.028481334
1678956296,45,1678956295,814040000,-0.00049632,-4.75E-05,0.000150689,-0.388526767,-0.001308826,-0.000965329,0.921436012,-0.000809782,0.012087055,-0.015998537,-0.063141406,0.017253457,-0.008332068
1678956296,46,1678956295,814040000,-0.00049632,-4.75E-05,0.000150689,-0.388526767,-0.001308826,-0.000965329,0.921436012,-0.000809782,0.012087055,-0.015998537,-0.063141406,0.017253457,-0.008332068
1678956296,47,1678956295,814040000,-0.00049632,-4.75E-05,0.000150689,-0.388526767,-0.001308826,-0.000965329,0.921436012,-0.000809782,0.012087055,-0.015998537,-0.063141406,0.017253457,-0.008332068
1678956296,48,1678956295,814040000,-0.00049632,-4.75E-05,0.000150689,-0.388526767,-0.001308826,-0.000965329,0.921436012,-0.000809782,0.012087055,-0.015998537,-0.063141406,0.017253457,-0.008332068
1678956296,49,1678956295,814040000,-0.00049632,-4.75E-05,0.000150689,-0.388526767,-0.001308826,-0.000965329,0.921436012,-0.000809782,0.012087055,-0.015998537,-0.063141406,0.017253457,-0.008332068
1678956296,50,1678956295,814040000,-0.00049632,-4.75E-05,0.000150689,-0.388526767,-0.001308826,-0.000965329,0.921436012,-0.000809782,0.012087055,-0.015998537,-0.063141406,0.017253457,-0.008332068
1678956296,51,1678956295,831321000,-0.000475659,4.17E-05,0.000238099,-0.388890147,-0.00128935,-0.000934604,0.921282709,0.001958915,0.016878521,0.000423645,-0.116392136,-0.012292132,0.01939779
1678956296,52,1678956295,833022000,-0.000446897,0.000250228,0.000280815,-0.388763875,-0.001446851,-0.000937973,0.921335876,0.003797605,0.023707995,0.007426914,0.021684421,0.004490634,0.012528362
1678956296,53,1678956295,833022000,-0.000446897,0.000250228,0.000280815,-0.388763875,-0.001446851,-0.000937973,0.921335876,0.003797605,0.023707995,0.007426914,0.021684421,0.004490634,0.012528362
1678956296,54,1678956295,840222000,-0.000487447,0.000314382,0.000238108,-0.388770729,-0.001408241,-0.000868071,0.921333015,-0.004137005,0.01775592,-0.001191595,0.004774648,0.032870695,0.020573802
1678956296,55,1678956295,840222000,-0.000487447,0.000314382,0.000238108,-0.388770729,-0.001408241,-0.000868071,0.921333015,-0.004137005,0.01775592,-0.001191595,0.004774648,0.032870695,0.020573802
1678956296,56,1678956295,849522000,-0.000543432,0.000610431,0.000271124,-0.388859093,-0.00134349,-0.000922281,0.921295762,-0.002726729,0.022135682,0.006303025,-0.081289738,-0.071721032,0.017262477
1678956296,57,1678956295,854814000,-0.000625148,-0.000518196,0.000440659,-0.389122188,-0.00142159,-0.000881979,0.921184659,-0.001858591,-0.007048571,0.007643726,0.085384667,-0.009511253,0.014809586
1678956296,58,1678956295,854814000,-0.000625148,-0.000518196,0.000440659,-0.389122188,-0.00142159,-0.000881979,0.921184659,-0.001858591,-0.007048571,0.007643726,0.085384667,-0.009511253,0.014809586
1678956296,59,1678956295,854814000,-0.000625148,-0.000518196,0.000440659,-0.389122188,-0.00142159,-0.000881979,0.921184659,-0.001858591,-0.007048571,0.007643726,0.085384667,-0.009511253,0.014809586
1678956296,60,1678956295,854814000,-0.000625148,-0.000518196,0.000440659,-0.389122188,-0.00142159,-0.000881979,0.921184659,-0.001858591,-0.007048571,0.007643726,0.085384667,-0.009511253,0.014809586
1678956296,61,1678956295,854814000,-0.000625148,-0.000518196,0.000440659,-0.389122188,-0.00142159,-0.000881979,0.921184659,-0.001858591,-0.007048571,0.007643726,0.085384667,-0.009511253,0.014809586
1678956296,62,1678956295,867875000,-0.00068461,-0.000545291,0.000417451,-0.389231354,-0.001244629,-0.000705505,0.921138942,-0.005671469,-0.001992641,-0.002793085,-0.011440872,0.008280307,0.0382239
1678956296,63,1678956295,867875000,-0.00068461,-0.000545291,0.000417451,-0.389231354,-0.001244629,-0.000705505,0.921138942,-0.005671469,-0.001992641,-0.002793085,-0.011440872,0.008280307,0.0382239
1678956296,64,1678956295,867875000,-0.00068461,-0.000545291,0.000417451,-0.389231354,-0.001244629,-0.000705505,0.921138942,-0.005671469,-0.001992641,-0.002793085,-0.011440872,0.008280307,0.0382239
1678956296,65,1678956295,875234000,-0.000715231,-0.000537787,0.000420621,-0.388998657,-0.001304224,-0.000668102,0.92123723,-0.006579516,0.000705229,-0.003941505,0.170258567,-0.011250539,-0.007630217
1678956296,66,1678956295,875234000,-0.000715231,-0.000537787,0.000420621,-0.388998657,-0.001304224,-0.000668102,0.92123723,-0.006579516,0.000705229,-0.003941505,0.170258567,-0.011250539,-0.007630217
1678956296,67,1678956295,875234000,-0.000715231,-0.000537787,0.000420621,-0.388998657,-0.001304224,-0.000668102,0.92123723,-0.006579516,0.000705229,-0.003941505,0.170258567,-0.011250539,-0.007630217
1678956296,68,1678956295,875234000,-0.000715231,-0.000537787,0.000420621,-0.388998657,-0.001304224,-0.000668102,0.92123723,-0.006579516,0.000705229,-0.003941505,0.170258567,-0.011250539,-0.007630217
1678956296,69,1678956295,875234000,-0.000715231,-0.000537787,0.000420621,-0.388998657,-0.001304224,-0.000668102,0.92123723,-0.006579516,0.000705229,-0.003941505,0.170258567,-0.011250539,-0.007630217
1678956296,70,1678956295,875234000,-0.000715231,-0.000537787,0.000420621,-0.388998657,-0.001304224,-0.000668102,0.92123723,-0.006579516,0.000705229,-0.003941505,0.170258567,-0.011250539,-0.007630217
1678956296,71,1678956295,875234000,-0.000715231,-0.000537787,0.000420621,-0.388998657,-0.001304224,-0.000668102,0.92123723,-0.006579516,0.000705229,-0.003941505,0.170258567,-0.011250539,-0.007630217
1678956296,72,1678956295,875234000,-0.000715231,-0.000537787,0.000420621,-0.388998657,-0.001304224,-0.000668102,0.92123723,-0.006579516,0.000705229,-0.003941505,0.170258567,-0.011250539,-0.007630217
1678956296,73,1678956295,875234000,-0.000715231,-0.000537787,0.000420621,-0.388998657,-0.001304224,-0.000668102,0.92123723,-0.006579516,0.000705229,-0.003941505,0.170258567,-0.011250539,-0.007630217
1678956296,74,1678956295,901086000,-0.000471441,-0.000780191,-3.34E-05,-0.389285386,-0.0013283,-0.00097086,0.921115756,0.002347113,-0.024345532,-0.022340748,0.066258855,0.02788117,0.016194269
1678956296,75,1678956295,901086000,-0.000471441,-0.000780191,-3.34E-05,-0.389285386,-0.0013283,-0.00097086,0.921115756,0.002347113,-0.024345532,-0.022340748,0.066258855,0.02788117,0.016194269
1678956296,76,1678956295,901086000,-0.000471441,-0.000780191,-3.34E-05,-0.389285386,-0.0013283,-0.00097086,0.921115756,0.002347113,-0.024345532,-0.022340748,0.066258855,0.02788117,0.016194269
1678956296,77,1678956295,907931000,-0.000460267,-0.000912287,-0.000164889,-0.389074653,-0.001233593,-0.000926876,0.921204984,0.002051611,-0.028707769,-0.029412376,0.027877508,0.04658347,-0.021238377
1678956296,78,1678956295,907931000,-0.000460267,-0.000912287,-0.000164889,-0.389074653,-0.001233593,-0.000926876,0.921204984,0.002051611,-0.028707769,-0.029412376,0.027877508,0.04658347,-0.021238377
1678956296,79,1678956295,914514000,-0.000466393,-0.00042272,0.000295655,-0.388994455,-0.001402438,-0.001032181,0.921238542,0.002779857,0.017321562,0.009773741,-0.03363451,-0.087919839,0.0153961
1678956296,80,1678956295,914514000,-0.000466393,-0.00042272,0.000295655,-0.388994455,-0.001402438,-0.001032181,0.921238542,0.002779857,0.017321562,0.009773741,-0.03363451,-0.087919839,0.0153961
1678956296,81,1678956295,914514000,-0.000466393,-0.00042272,0.000295655,-0.388994455,-0.001402438,-0.001032181,0.921238542,0.002779857,0.017321562,0.009773741,-0.03363451,-0.087919839,0.0153961
1678956296,82,1678956295,914514000,-0.000466393,-0.00042272,0.000295655,-0.388994455,-0.001402438,-0.001032181,0.921238542,0.002779857,0.017321562,0.009773741,-0.03363451,-0.087919839,0.0153961
1678956296,83,1678956295,927593000,-0.000451431,-0.000314211,0.000363924,-0.389024049,-0.001594538,-0.001049955,0.921225727,0.003195127,0.025194213,0.014944578,-0.003306815,-0.03804034,0.023863718
1678956296,84,1678956295,927593000,-0.000451431,-0.000314211,0.000363924,-0.389024049,-0.001594538,-0.001049955,0.921225727,0.003195127,0.025194213,0.014944578,-0.003306815,-0.03804034,0.023863718
1678956296,85,1678956295,935035000,-0.000558294,-0.000465094,0.000248734,-0.389040112,-0.001379148,-0.000827919,0.921219468,-0.009885067,-0.012982078,-0.009802721,-0.027915226,-0.007908195,-0.03566049
1678956296,86,1678956295,935035000,-0.000558294,-0.000465094,0.000248734,-0.389040112,-0.001379148,-0.000827919,0.921219468,-0.009885067,-0.012982078,-0.009802721,-0.027915226,-0.007908195,-0.03566049
1678956296,87,1678956295,941385000,-0.000615009,-0.000537122,0.000178861,-0.388875872,-0.001436496,-0.000984593,0.92128855,-0.01286923,-0.018960416,-0.015238552,0.154933289,-0.063794449,-0.041368935
1678956296,88,1678956295,941385000,-0.000615009,-0.000537122,0.000178861,-0.388875872,-0.001436496,-0.000984593,0.92128855,-0.01286923,-0.018960416,-0.015238552,0.154933289,-0.063794449,-0.041368935
1678956296,89,1678956295,947683000,-0.000588237,-0.000416592,0.00024686,-0.388653547,-0.001566793,-0.001063416,0.92138207,-0.001779115,0.007561789,0.002014592,-0.065008841,-0.052796893,0.032685347
1678956296,90,1678956295,947683000,-0.000588237,-0.000416592,0.00024686,-0.388653547,-0.001566793,-0.001063416,0.92138207,-0.001779115,0.007561789,0.002014592,-0.065008841,-0.052796893,0.032685347
1678956296,91,1678956295,947683000,-0.000588237,-0.000416592,0.00024686,-0.388653547,-0.001566793,-0.001063416,0.92138207,-0.001779115,0.007561789,0.002014592,-0.065008841,-0.052796893,0.032685347
1678956296,92,1678956295,947683000,-0.000588237,-0.000416592,0.00024686,-0.388653547,-0.001566793,-0.001063416,0.92138207,-0.001779115,0.007561789,0.002014592,-0.065008841,-0.052796893,0.032685347
1678956296,93,1678956295,947683000,-0.000588237,-0.000416592,0.00024686,-0.388653547,-0.001566793,-0.001063416,0.92138207,-0.001779115,0.007561789,0.002014592,-0.065008841,-0.052796893,0.032685347
1678956296,94,1678956295,947683000,-0.000588237,-0.000416592,0.00024686,-0.388653547,-0.001566793,-0.001063416,0.92138207,-0.001779115,0.007561789,0.002014592,-0.065008841,-0.052796893,0.032685347
1678956296,95,1678956295,947683000,-0.000588237,-0.000416592,0.00024686,-0.388653547,-0.001566793,-0.001063416,0.92138207,-0.001779115,0.007561789,0.002014592,-0.065008841,-0.052796893,0.032685347
1678956296,96,1678956295,966559000,-0.000551346,-0.000305379,0.0005882,-0.388925821,-0.0015491,-0.000904398,0.921267331,0.000408942,0.004183883,0.003302084,0.052242309,-0.057803541,-0.024327569
1678956296,97,1678956295,966559000,-0.000551346,-0.000305379,0.0005882,-0.388925821,-0.0015491,-0.000904398,0.921267331,0.000408942,0.004183883,0.003302084,0.052242309,-0.057803541,-0.024327569
1678956296,98,1678956295,966559000,-0.000551346,-0.000305379,0.0005882,-0.388925821,-0.0015491,-0.000904398,0.921267331,0.000408942,0.004183883,0.003302084,0.052242309,-0.057803541,-0.024327569
1678956296,99,1678956295,966559000,-0.000551346,-0.000305379,0.0005882,-0.388925821,-0.0015491,-0.000904398,0.921267331,0.000408942,0.004183883,0.003302084,0.052242309,-0.057803541,-0.024327569
1678956296,100,1678956295,981658000,-0.000541735,-0.000613557,0.000442695,-0.389003575,-0.001681385,-0.001090472,0.921234071,-0.002257082,-0.025609899,0.014309132,-0.142052561,0.068811387,0.021258818
1678956296,101,1678956295,981658000,-0.000541735,-0.000613557,0.000442695,-0.389003575,-0.001681385,-0.001090472,0.921234071,-0.002257082,-0.025609899,0.014309132,-0.142052561,0.068811387,0.021258818
1678956296,102,1678956295,988007000,-0.000553401,-0.000781593,0.000486515,-0.389173001,-0.00153579,-0.001029453,0.921162844,-0.002973496,-0.033184264,0.016640708,0.004017214,0.016950445,0.005906844
1678956296,103,1678956295,988007000,-0.000553401,-0.000781593,0.000486515,-0.389173001,-0.00153579,-0.001029453,0.921162844,-0.002973496,-0.033184264,0.016640708,0.004017214,0.016950445,0.005906844
1678956296,104,1678956295,996089000,-0.000568619,-0.00056638,0.000531362,-0.389214694,-0.001718567,-0.001166346,0.921144783,-0.002446984,0.011341389,0.010613774,0.049094494,-0.043277625,-0.041065957
1678956296,105,1678956295,996089000,-0.000568619,-0.00056638,0.000531362,-0.389214694,-0.001718567,-0.001166346,0.921144783,-0.002446984,0.011341389,0.010613774,0.049094494,-0.043277625,-0.041065957
1678956296,106,1678956295,996089000,-0.000568619,-0.00056638,0.000531362,-0.389214694,-0.001718567,-0.001166346,0.921144783,-0.002446984,0.011341389,0.010613774,0.049094494,-0.043277625,-0.041065957
1678956296,107,1678956296,2771000,-0.000581025,-0.000469648,0.000579728,-0.388957471,-0.001716607,-0.001245245,0.921253264,-0.002676989,0.020407267,0.010969365,0.117124461,0.025214739,-0.004209457
1678956296,108,1678956296,2771000,-0.000581025,-0.000469648,0.000579728,-0.388957471,-0.001716607,-0.001245245,0.921253264,-0.002676989,0.020407267,0.010969365,0.117124461,0.025214739,-0.004209457
1678956296,109,1678956296,8092000,-0.000594267,-0.000342383,0.000610308,-0.388843149,-0.001647809,-0.00114161,0.921301782,-0.002900554,0.028862337,0.01042908,-0.035287578,0.036193371,0.055001542
1678956296,110,1678956296,8092000,-0.000594267,-0.000342383,0.000610308,-0.388843149,-0.001647809,-0.00114161,0.921301782,-0.002900554,0.028862337,0.01042908,-0.035287578,0.036193371,0.055001542
1678956296,111,1678956296,14919000,-0.000553052,-0.000832321,0.000279184,-0.389051139,-0.0015958,-0.000914193,0.921214342,-0.000806669,-0.038179681,-0.007952224,-0.065707669,-0.044930898,-0.024276644
1678956296,112,1678956296,14919000,-0.000553052,-0.000832321,0.000279184,-0.389051139,-0.0015958,-0.000914193,0.921214342,-0.000806669,-0.038179681,-0.007952224,-0.065707669,-0.044930898,-0.024276644
1678956296,113,1678956296,14919000,-0.000553052,-0.000832321,0.000279184,-0.389051139,-0.0015958,-0.000914193,0.921214342,-0.000806669,-0.038179681,-0.007952224,-0.065707669,-0.044930898,-0.024276644
1678956296,114,1678956296,24467000,-0.000556366,-0.001033694,0.00022085,-0.389177799,-0.001748884,-0.000980781,0.921160579,-0.000732137,-0.045689661,-0.010353518,0.003190101,-0.071931407,0.035483919
1678956296,115,1678956296,24467000,-0.000556366,-0.001033694,0.00022085,-0.389177799,-0.001748884,-0.000980781,0.921160579,-0.000732137,-0.045689661,-0.010353518,0.003190101,-0.071931407,0.035483919
1678956296,116,1678956296,32287000,-0.000613313,-0.000584116,0.000361836,-0.389065146,-0.001864536,-0.00090149,0.921207964,-0.006158663,0.016675239,0.007096949,0.045171075,0.038239907,0.028354321
1678956296,117,1678956296,32287000,-0.000613313,-0.000584116,0.000361836,-0.389065146,-0.001864536,-0.00090149,0.921207964,-0.006158663,0.016675239,0.007096949,0.045171075,0.038239907,0.028354321
1678956296,118,1678956296,39371000,-0.000690948,-0.000283413,0.000461187,-0.388801575,-0.001484126,-0.000868897,0.921319962,-0.009319173,0.043132305,0.013422984,0.057885051,0.01861061,-0.015872085
1678956296,119,1678956296,41560000,-0.000677731,-0.000459312,0.000408333,-0.388874203,-0.001553213,-0.000883337,0.921289206,-0.001792716,-0.004577122,-0.001486492,-0.161888659,-0.068244047,0.007284845
1678956296,120,1678956296,47861000,-0.000681718,-0.00051002,0.000395264,-0.389246017,-0.001714768,-0.000966682,0.92113179,0.000259291,-0.01587967,-0.004543005,-0.02657697,-0.051465221,-0.017720684
1678956296,121,1678956296,47861000,-0.000681718,-0.00051002,0.000395264,-0.389246017,-0.001714768,-0.000966682,0.92113179,0.000259291,-0.01587967,-0.004543005,-0.02657697,-0.051465221,-0.017720684
1678956296,122,1678956296,54118000,-0.000364904,-0.000711635,-6.74E-05,-0.389112473,-0.001757742,-0.001137894,0.921187937,0.00544315,0.005012411,-0.008688595,-0.107734479,0.000884158,0.066444151
1678956296,123,1678956296,54118000,-0.000364904,-0.000711635,-6.74E-05,-0.389112473,-0.001757742,-0.001137894,0.921187937,0.00544315,0.005012411,-0.008688595,-0.107734479,0.000884158,0.066444151
1678956296,124,1678956296,54118000,-0.000364904,-0.000711635,-6.74E-05,-0.389112473,-0.001757742,-0.001137894,0.921187937,0.00544315,0.005012411,-0.008688595,-0.107734479,0.000884158,0.066444151
1678956296,125,1678956296,54118000,-0.000364904,-0.000711635,-6.74E-05,-0.389112473,-0.001757742,-0.001137894,0.921187937,0.00544315,0.005012411,-0.008688595,-0.107734479,0.000884158,0.066444151
1678956296,126,1678956296,69029000,-0.000289002,-0.000703551,-0.000164128,-0.388704866,-0.001625326,-0.001200742,0.921360135,0.004702932,-0.015380962,-0.012927074,-0.010086614,-0.024590082,0.000593598
1678956296,127,1678956296,75357000,-0.000266162,-0.000815932,-0.000237896,-0.388989359,-0.001733373,-0.001163195,0.921239972,0.004473411,-0.027022673,-0.016795469,-0.172110781,-0.045729905,0.040825143
1678956296,128,1678956296,75357000,-0.000266162,-0.000815932,-0.000237896,-0.388989359,-0.001733373,-0.001163195,0.921239972,0.004473411,-0.027022673,-0.016795469,-0.172110781,-0.045729905,0.040825143
1678956296,129,1678956296,75357000,-0.000266162,-0.000815932,-0.000237896,-0.388989359,-0.001733373,-0.001163195,0.921239972,0.004473411,-0.027022673,-0.016795469,-0.172110781,-0.045729905,0.040825143
1678956296,130,1678956296,75357000,-0.000266162,-0.000815932,-0.000237896,-0.388989359,-0.001733373,-0.001163195,0.921239972,0.004473411,-0.027022673,-0.016795469,-0.172110781,-0.045729905,0.040825143
1678956296,131,1678956296,75357000,-0.000266162,-0.000815932,-0.000237896,-0.388989359,-0.001733373,-0.001163195,0.921239972,0.004473411,-0.027022673,-0.016795469,-0.172110781,-0.045729905,0.040825143
1678956296,132,1678956296,89740000,-0.000545813,-0.001219617,1.86E-05,-0.388956606,-0.00179129,-0.001138404,0.921253622,-0.001590057,-0.070487291,-0.025469294,0.033545159,0.009219388,-0.015469199
1678956296,133,1678956296,89740000,-0.000545813,-0.001219617,1.86E-05,-0.388956606,-0.00179129,-0.001138404,0.921253622,-0.001590057,-0.070487291,-0.025469294,0.033545159,0.009219388,-0.015469199
1678956296,134,1678956296,98890000,-0.000567933,-0.000926164,0.000182045,-0.388980269,-0.001686429,-0.001141037,0.921243906,-0.002458376,0.00354548,0.005577371,-0.130096957,-0.024608472,0.032807738
1678956296,135,1678956296,99858000,-0.000587672,-0.001280546,-3.98E-05,-0.388699442,-0.00167986,-0.001144861,0.9213624,-0.001877625,-0.036264285,-0.022417583,0.132686585,0.027151134,-0.006019607
1678956296,136,1678956296,99858000,-0.000587672,-0.001280546,-3.98E-05,-0.388699442,-0.00167986,-0.001144861,0.9213624,-0.001877625,-0.036264285,-0.022417583,0.132686585,0.027151134,-0.006019607
1678956296,137,1678956296,106595000,-0.000596694,-0.001497669,-0.000173589,-0.388685852,-0.001703474,-0.001066806,0.921368182,-0.001707926,-0.048503969,-0.031490497,-0.103322163,-0.022201749,0.060991667
1678956296,138,1678956296,106595000,-0.000596694,-0.001497669,-0.000173589,-0.388685852,-0.001703474,-0.001066806,0.921368182,-0.001707926,-0.048503969,-0.031490497,-0.103322163,-0.022201749,0.060991667
1678956296,139,1678956296,106595000,-0.000596694,-0.001497669,-0.000173589,-0.388685852,-0.001703474,-0.001066806,0.921368182,-0.001707926,-0.048503969,-0.031490497,-0.103322163,-0.022201749,0.060991667
1678956296,140,1678956296,112892000,-0.000604668,-0.001761329,-0.000345613,-0.388914734,-0.001781308,-0.000994227,0.921271503,-0.001538445,-0.06154485,-0.041114647,-0.019546259,0.012068344,-0.016755389
1678956296,141,1678956296,112892000,-0.000604668,-0.001761329,-0.000345613,-0.388914734,-0.001781308,-0.000994227,0.921271503,-0.001538445,-0.06154485,-0.041114647,-0.019546259,0.012068344,-0.016755389
1678956296,142,1678956296,118727000,-0.000611234,-0.001738262,-0.00033418,-0.388774335,-0.001691001,-0.001067062,0.921330869,-0.001285373,-0.023844298,-0.017177889,0.086893804,-0.002230483,-0.014277292
1678956296,143,1678956296,118727000,-0.000611234,-0.001738262,-0.00033418,-0.388774335,-0.001691001,-0.001067062,0.921330869,-0.001285373,-0.023844298,-0.017177889,0.086893804,-0.002230483,-0.014277292
1678956296,144,1678956296,118727000,-0.000611234,-0.001738262,-0.00033418,-0.388774335,-0.001691001,-0.001067062,0.921330869,-0.001285373,-0.023844298,-0.017177889,0.086893804,-0.002230483,-0.014277292
1678956296,145,1678956296,118727000,-0.000611234,-0.001738262,-0.00033418,-0.388774335,-0.001691001,-0.001067062,0.921330869,-0.001285373,-0.023844298,-0.017177889,0.086893804,-0.002230483,-0.014277292
1678956296,146,1678956296,118727000,-0.000611234,-0.001738262,-0.00033418,-0.388774335,-0.001691001,-0.001067062,0.921330869,-0.001285373,-0.023844298,-0.017177889,0.086893804,-0.002230483,-0.014277292
1678956296,147,1678956296,118727000,-0.000611234,-0.001738262,-0.00033418,-0.388774335,-0.001691001,-0.001067062,0.921330869,-0.001285373,-0.023844298,-0.017177889,0.086893804,-0.002230483,-0.014277292
1678956296,148,1678956296,133408000,-0.000523669,0.000341723,0.000723239,-0.38888365,-0.00192731,-0.000983888,0.921284378,0.000958084,0.05327516,0.030700836,0.18251504,0.024704516,-0.047651567
1678956296,149,1678956296,133408000,-0.000523669,0.000341723,0.000723239,-0.38888365,-0.00192731,-0.000983888,0.921284378,0.000958084,0.05327516,0.030700836,0.18251504,0.024704516,-0.047651567
1678956296,150,1678956296,133408000,-0.000523669,0.000341723,0.000723239,-0.38888365,-0.00192731,-0.000983888,0.921284378,0.000958084,0.05327516,0.030700836,0.18251504,0.024704516,-0.047651567
1678956296,151,1678956296,141438000,-0.000564948,3.59E-05,0.000470174,-0.388896734,-0.001896338,-0.000915805,0.921278954,-0.003030584,-0.003566489,-0.008356567,-0.069026694,-0.02196577,0.035074551
1678956296,152,1678956296,146649000,-0.000582016,6.68E-06,0.000410805,-0.388886303,-0.001933927,-0.000915539,0.921283305,-0.003822386,-0.010316871,-0.014285844,0.053370137,0.001055259,-0.01012399
1678956296,153,1678956296,146649000,-0.000582016,6.68E-06,0.000410805,-0.388886303,-0.001933927,-0.000915539,0.921283305,-0.003822386,-0.010316871,-0.014285844,0.053370137,0.001055259,-0.01012399
1678956296,154,1678956296,152932000,-0.000520839,-0.00024382,0.000442203,-0.388508707,-0.001832791,-0.000980802,0.921442747,0.001579094,0.019810578,0.011995596,-0.012574586,-0.006603736,0.020553358
1678956296,155,1678956296,152932000,-0.000520839,-0.00024382,0.000442203,-0.388508707,-0.001832791,-0.000980802,0.921442747,0.001579094,0.019810578,0.011995596,-0.012574586,-0.006603736,0.020553358
1678956296,156,1678956296,152932000,-0.000520839,-0.00024382,0.000442203,-0.388508707,-0.001832791,-0.000980802,0.921442747,0.001579094,0.019810578,0.011995596,-0.012574586,-0.006603736,0.020553358
1678956296,157,1678956296,152932000,-0.000520839,-0.00024382,0.000442203,-0.388508707,-0.001832791,-0.000980802,0.921442747,0.001579094,0.019810578,0.011995596,-0.012574586,-0.006603736,0.020553358
1678956296,158,1678956296,168209000,-0.000549813,-3.18E-05,0.000550617,-0.388359457,-0.001786618,-0.000898024,0.921505809,-0.003708396,0.014231197,0.006031818,0.035208125,0.032459229,-0.069571063
1678956296,159,1678956296,168209000,-0.000549813,-3.18E-05,0.000550617,-0.388359457,-0.001786618,-0.000898024,0.921505809,-0.003708396,0.014231197,0.006031818,0.035208125,0.032459229,-0.069571063
1678956296,160,1678956296,168209000,-0.000549813,-3.18E-05,0.000550617,-0.388359457,-0.001786618,-0.000898024,0.921505809,-0.003708396,0.014231197,0.006031818,0.035208125,0.032459229,-0.069571063
1678956296,161,1678956296,168209000,-0.000549813,-3.18E-05,0.000550617,-0.388359457,-0.001786618,-0.000898024,0.921505809,-0.003708396,0.014231197,0.006031818,0.035208125,0.032459229,-0.069571063
1678956296,162,1678956296,168209000,-0.000549813,-3.18E-05,0.000550617,-0.388359457,-0.001786618,-0.000898024,0.921505809,-0.003708396,0.014231197,0.006031818,0.035208125,0.032459229,-0.069571063
1678956296,163,1678956296,168209000,-0.000549813,-3.18E-05,0.000550617,-0.388359457,-0.001786618,-0.000898024,0.921505809,-0.003708396,0.014231197,0.006031818,0.035208125,0.032459229,-0.069571063
1678956296,164,1678956296,181982000,-0.000572465,2.58E-05,0.000570767,-0.388339698,-0.001737157,-0.001016975,0.921514094,-0.005329467,0.011420764,0.003510964,-0.011258374,-0.049931362,-0.003845517
1678956296,165,1678956296,184205000,-0.000663315,-8.08E-05,0.00023327,-0.388608217,-0.002107318,-0.000930492,0.921400189,-0.009736863,0.016057201,-0.003968114,0.030958917,0.030766768,0.011478479
1678956296,166,1678956296,184205000,-0.000663315,-8.08E-05,0.00023327,-0.388608217,-0.002107318,-0.000930492,0.921400189,-0.009736863,0.016057201,-0.003968114,0.030958917,0.030766768,0.011478479
1678956296,167,1678956296,184205000,-0.000663315,-8.08E-05,0.00023327,-0.388608217,-0.002107318,-0.000930492,0.921400189,-0.009736863,0.016057201,-0.003968114,0.030958917,0.030766768,0.011478479
1678956296,168,1678956296,184205000,-0.000663315,-8.08E-05,0.00023327,-0.388608217,-0.002107318,-0.000930492,0.921400189,-0.009736863,0.016057201,-0.003968114,0.030958917,0.030766768,0.011478479
1678956296,169,1678956296,184205000,-0.000663315,-8.08E-05,0.00023327,-0.388608217,-0.002107318,-0.000930492,0.921400189,-0.009736863,0.016057201,-0.003968114,0.030958917,0.030766768,0.011478479
1678956296,170,1678956296,184205000,-0.000663315,-8.08E-05,0.00023327,-0.388608217,-0.002107318,-0.000930492,0.921400189,-0.009736863,0.016057201,-0.003968114,0.030958917,0.030766768,0.011478479
1678956296,171,1678956296,184205000,-0.000663315,-8.08E-05,0.00023327,-0.388608217,-0.002107318,-0.000930492,0.921400189,-0.009736863,0.016057201,-0.003968114,0.030958917,0.030766768,0.011478479
1678956296,172,1678956296,201732000,-0.000816222,0.000464752,9.34E-05,-0.388038397,-0.002037082,-0.000930899,0.921640456,-0.009751858,0.032281723,-0.007797,0.179273933,-0.042891778,-0.025944034
1678956296,173,1678956296,201732000,-0.000816222,0.000464752,9.34E-05,-0.388038397,-0.002037082,-0.000930899,0.921640456,-0.009751858,0.032281723,-0.007797,0.179273933,-0.042891778,-0.025944034
1678956296,174,1678956296,201732000,-0.000816222,0.000464752,9.34E-05,-0.388038397,-0.002037082,-0.000930899,0.921640456,-0.009751858,0.032281723,-0.007797,0.179273933,-0.042891778,-0.025944034
1678956296,175,1678956296,201732000,-0.000816222,0.000464752,9.34E-05,-0.388038397,-0.002037082,-0.000930899,0.921640456,-0.009751858,0.032281723,-0.007797,0.179273933,-0.042891778,-0.025944034
1678956296,176,1678956296,210469000,-0.000866384,0.000621212,3.98E-05,-0.387942016,-0.002152266,-0.000907768,0.921680808,-0.010243746,0.034805015,-0.009323414,-0.13681747,-0.019591073,0.06378457
1678956296,177,1678956296,210469000,-0.000866384,0.000621212,3.98E-05,-0.387942016,-0.002152266,-0.000907768,0.921680808,-0.010243746,0.034805015,-0.009323414,-0.13681747,-0.019591073,0.06378457
1678956296,178,1678956296,216748000,-0.000578666,-7.43E-06,0.000338138,-0.387972087,-0.002254166,-0.000543267,0.921668231,-0.003255147,0.012701558,0.00581384,0.062051088,0.051344059,0.030170335
1678956296,179,1678956296,216748000,-0.000578666,-7.43E-06,0.000338138,-0.387972087,-0.002254166,-0.000543267,0.921668231,-0.003255147,0.012701558,0.00581384,0.062051088,0.051344059,0.030170335
1678956296,180,1678956296,216748000,-0.000578666,-7.43E-06,0.000338138,-0.387972087,-0.002254166,-0.000543267,0.921668231,-0.003255147,0.012701558,0.00581384,0.062051088,0.051344059,0.030170335
1678956296,181,1678956296,216748000,-0.000578666,-7.43E-06,0.000338138,-0.387972087,-0.002254166,-0.000543267,0.921668231,-0.003255147,0.012701558,0.00581384,0.062051088,0.051344059,0.030170335
1678956296,182,1678956296,216748000,-0.000578666,-7.43E-06,0.000338138,-0.387972087,-0.002254166,-0.000543267,0.921668231,-0.003255147,0.012701558,0.00581384,0.062051088,0.051344059,0.030170335
1678956296,183,1678956296,232868000,-0.000597305,0.000313874,0.000276181,-0.387366235,-0.002339249,-0.000560459,0.921922863,-0.000939035,0.025365775,-0.004440865,0.20060569,-0.033530958,-0.015088536
1678956296,184,1678956296,232868000,-0.000597305,0.000313874,0.000276181,-0.387366235,-0.002339249,-0.000560459,0.921922863,-0.000939035,0.025365775,-0.004440865,0.20060569,-0.033530958,-0.015088536
1678956296,185,1678956296,240968000,-0.000602122,0.000611215,0.000198278,-0.387320071,-0.002473888,-0.000400187,0.921941936,-4.33E-05,0.032421842,-0.008888655,0.026752213,-0.006376352,0.075669378
1678956296,186,1678956296,240968000,-0.000602122,0.000611215,0.000198278,-0.387320071,-0.002473888,-0.000400187,0.921941936,-4.33E-05,0.032421842,-0.008888655,0.026752213,-0.006376352,0.075669378
1678956296,187,1678956296,247127000,-0.000614468,0.000746065,0.000296799,-0.387054652,-0.002556239,-0.000255365,0.922053218,-0.001134767,0.032176375,0.006845421,0.144290283,9.77E-05,0.048165303
1678956296,188,1678956296,253286000,-0.000474702,0.000144988,0.000298488,-0.386858255,-0.002498929,-0.000145044,0.92213583,0.001445076,0.025225231,0.00757307,0.010794556,0.021823304,0.028192505
1678956296,189,1678956296,253286000,-0.000474702,0.000144988,0.000298488,-0.386858255,-0.002498929,-0.000145044,0.92213583,0.001445076,0.025225231,0.00757307,0.010794556,0.021823304,0.028192505
1678956296,190,1678956296,253286000,-0.000474702,0.000144988,0.000298488,-0.386858255,-0.002498929,-0.000145044,0.92213583,0.001445076,0.025225231,0.00757307,0.010794556,0.021823304,0.028192505
1678956296,191,1678956296,253286000,-0.000474702,0.000144988,0.000298488,-0.386858255,-0.002498929,-0.000145044,0.92213583,0.001445076,0.025225231,0.00757307,0.010794556,0.021823304,0.028192505
1678956296,192,1678956296,267748000,-0.00048116,0.000514896,0.000296892,-0.386082739,-0.00259812,-5.57E-05,0.922460556,-0.000949708,0.028141279,-0.000781236,0.035528846,0.013619109,0.014034421
1678956296,193,1678956296,267748000,-0.00048116,0.000514896,0.000296892,-0.386082739,-0.00259812,-5.57E-05,0.922460556,-0.000949708,0.028141279,-0.000781236,0.035528846,0.013619109,0.014034421
1678956296,194,1678956296,267748000,-0.00048116,0.000514896,0.000296892,-0.386082739,-0.00259812,-5.57E-05,0.922460556,-0.000949708,0.028141279,-0.000781236,0.035528846,0.013619109,0.014034421
1678956296,195,1678956296,267748000,-0.00048116,0.000514896,0.000296892,-0.386082739,-0.00259812,-5.57E-05,0.922460556,-0.000949708,0.028141279,-0.000781236,0.035528846,0.013619109,0.014034421
1678956296,196,1678956296,275831000,-0.000487317,0.00066315,0.000291723,-0.38609615,-0.002628195,5.20E-05,0.922454834,-0.001508636,0.030265886,-0.001845043,0.031316947,-0.008072814,0.084547453
1678956296,197,1678956296,275831000,-0.000487317,0.00066315,0.000291723,-0.38609615,-0.002628195,5.20E-05,0.922454834,-0.001508636,0.030265886,-0.001845043,0.031316947,-0.008072814,0.084547453
1678956296,198,1678956296,282652000,-0.000508437,-0.000200352,9.84E-05,-0.385517806,-0.002810705,0.000334718,0.922696114,-0.000790056,0.000610384,-0.006818865,0.113747597,0.033188988,-0.01275818
1678956296,199,1678956296,282652000,-0.000508437,-0.000200352,9.84E-05,-0.385517806,-0.002810705,0.000334718,0.922696114,-0.000790056,0.000610384,-0.006818865,0.113747597,0.033188988,-0.01275818
1678956296,200,1678956296,282652000,-0.000508437,-0.000200352,9.84E-05,-0.385517806,-0.002810705,0.000334718,0.922696114,-0.000790056,0.000610384,-0.006818865,0.113747597,0.033188988,-0.01275818
1678956296,201,1678956296,282652000,-0.000508437,-0.000200352,9.84E-05,-0.385517806,-0.002810705,0.000334718,0.922696114,-0.000790056,0.000610384,-0.006818865,0.113747597,0.033188988,-0.01275818
1678956296,202,1678956296,282652000,-0.000508437,-0.000200352,9.84E-05,-0.385517806,-0.002810705,0.000334718,0.922696114,-0.000790056,0.000610384,-0.006818865,0.113747597,0.033188988,-0.01275818
1678956296,203,1678956296,300124000,-0.000476407,0.000207247,0.000180881,-0.384144008,-0.003008054,0.000615162,0.92326808,0.002569199,0.028226173,0.007848513,0.304860681,0.032425504,0.01379956
1678956296,204,1678956296,300124000,-0.000476407,0.000207247,0.000180881,-0.384144008,-0.003008054,0.000615162,0.92326808,0.002569199,0.028226173,0.007848513,0.304860681,0.032425504,0.01379956
1678956296,205,1678956296,309882000,-0.00048065,0.000285887,0.000206074,-0.383599192,-0.002993312,0.000748142,0.923494577,0.000507625,0.023581015,0.008650564,0.106961086,-0.004926657,0.099957034
1678956296,206,1678956296,309882000,-0.00048065,0.000285887,0.000206074,-0.383599192,-0.002993312,0.000748142,0.923494577,0.000507625,0.023581015,0.008650564,0.106961086,-0.004926657,0.099957034
1678956296,207,1678956296,314366000,-0.000479131,0.000406194,0.000254157,-0.383556038,-0.003172465,0.001001303,0.923511624,6.15E-05,0.026018828,0.011428189,-0.001548931,-0.027176956,0.106350005
1678956296,208,1678956296,314366000,-0.000479131,0.000406194,0.000254157,-0.383556038,-0.003172465,0.001001303,0.923511624,6.15E-05,0.026018828,0.011428189,-0.001548931,-0.027176956,0.106350005
1678956296,209,1678956296,314366000,-0.000479131,0.000406194,0.000254157,-0.383556038,-0.003172465,0.001001303,0.923511624,6.15E-05,0.026018828,0.011428189,-0.001548931,-0.027176956,0.106350005
1678956296,210,1678956296,320657000,-0.000513332,-0.000156321,0.000339823,-0.38287589,-0.003245042,0.001237853,0.923793256,-0.002087026,0.003408958,0.002676264,0.208789393,0.00907686,0.050511569
1678956296,211,1678956296,320657000,-0.000513332,-0.000156321,0.000339823,-0.38287589,-0.003245042,0.001237853,0.923793256,-0.002087026,0.003408958,0.002676264,0.208789393,0.00907686,0.050511569
1678956296,212,1678956296,320657000,-0.000513332,-0.000156321,0.000339823,-0.38287589,-0.003245042,0.001237853,0.923793256,-0.002087026,0.003408958,0.002676264,0.208789393,0.00907686,0.050511569
1678956296,213,1678956296,320657000,-0.000513332,-0.000156321,0.000339823,-0.38287589,-0.003245042,0.001237853,0.923793256,-0.002087026,0.003408958,0.002676264,0.208789393,0.00907686,0.050511569
1678956296,214,1678956296,320657000,-0.000513332,-0.000156321,0.000339823,-0.38287589,-0.003245042,0.001237853,0.923793256,-0.002087026,0.003408958,0.002676264,0.208789393,0.00907686,0.050511569
1678956296,215,1678956296,336525000,-0.000527213,-0.000140906,0.000307932,-0.381878763,-0.003393137,0.001621358,0.924204767,0.000415474,0.000112583,-0.003574301,0.132173896,0.014313807,0.017617259
1678956296,216,1678956296,342757000,-0.000522341,-0.000140851,0.000285942,-0.381648093,-0.003494455,0.001752043,0.924299419,0.001507363,-0.001204127,-0.005155974,0.136323005,-0.048472375,0.122259572
1678956296,217,1678956296,342757000,-0.000522341,-0.000140851,0.000285942,-0.381648093,-0.003494455,0.001752043,0.924299419,0.001507363,-0.001204127,-0.005155974,0.136323005,-0.048472375,0.122259572
1678956296,218,1678956296,349324000,-0.000510977,-0.000131246,0.000205461,-0.380979091,-0.003742184,0.002192786,0.924573481,0.001632284,5.33E-05,-0.0112888,0.236362278,0.025617164,0.041062787
1678956296,219,1678956296,349324000,-0.000510977,-0.000131246,0.000205461,-0.380979091,-0.003742184,0.002192786,0.924573481,0.001632284,5.33E-05,-0.0112888,0.236362278,0.025617164,0.041062787
1678956296,220,1678956296,349324000,-0.000510977,-0.000131246,0.000205461,-0.380979091,-0.003742184,0.002192786,0.924573481,0.001632284,5.33E-05,-0.0112888,0.236362278,0.025617164,0.041062787
1678956296,221,1678956296,349324000,-0.000510977,-0.000131246,0.000205461,-0.380979091,-0.003742184,0.002192786,0.924573481,0.001632284,5.33E-05,-0.0112888,0.236362278,0.025617164,0.041062787
1678956296,222,1678956296,349324000,-0.000510977,-0.000131246,0.000205461,-0.380979091,-0.003742184,0.002192786,0.924573481,0.001632284,5.33E-05,-0.0112888,0.236362278,0.025617164,0.041062787
1678956296,223,1678956296,349324000,-0.000510977,-0.000131246,0.000205461,-0.380979091,-0.003742184,0.002192786,0.924573481,0.001632284,5.33E-05,-0.0112888,0.236362278,0.025617164,0.041062787
1678956296,224,1678956296,349324000,-0.000510977,-0.000131246,0.000205461,-0.380979091,-0.003742184,0.002192786,0.924573481,0.001632284,5.33E-05,-0.0112888,0.236362278,0.025617164,0.041062787
1678956296,225,1678956296,368049000,-0.00049807,0.000736186,0.000429474,-0.379734844,-0.004145434,0.002486356,0.925082684,0.002376312,0.042677123,0.00573705,0.22404106,-0.03117029,0.032939214
1678956296,226,1678956296,368049000,-0.00049807,0.000736186,0.000429474,-0.379734844,-0.004145434,0.002486356,0.925082684,0.002376312,0.042677123,0.00573705,0.22404106,-0.03117029,0.032939214
1678956296,227,1678956296,368049000,-0.00049807,0.000736186,0.000429474,-0.379734844,-0.004145434,0.002486356,0.925082684,0.002376312,0.042677123,0.00573705,0.22404106,-0.03117029,0.032939214
1678956296,228,1678956296,368049000,-0.00049807,0.000736186,0.000429474,-0.379734844,-0.004145434,0.002486356,0.925082684,0.002376312,0.042677123,0.00573705,0.22404106,-0.03117029,0.032939214
1678956296,229,1678956296,380206000,-0.000542781,0.001170744,0.000452452,-0.37847051,-0.004450784,0.003087683,0.925597548,-0.00282514,0.035694845,0.00130894,0.143997863,-0.017934728,0.069977358
1678956296,230,1678956296,386451000,-0.000560972,0.000330705,0.000231317,-0.378371447,-0.004557512,0.003277682,0.925636828,-0.001532295,0.014538449,0.003495544,0.22499074,-0.054235578,0.019863054
1678956296,231,1678956296,386451000,-0.000560972,0.000330705,0.000231317,-0.378371447,-0.004557512,0.003277682,0.925636828,-0.001532295,0.014538449,0.003495544,0.22499074,-0.054235578,0.019863054
1678956296,232,1678956296,386451000,-0.000560972,0.000330705,0.000231317,-0.378371447,-0.004557512,0.003277682,0.925636828,-0.001532295,0.014538449,0.003495544,0.22499074,-0.054235578,0.019863054
1678956296,233,1678956296,386451000,-0.000560972,0.000330705,0.000231317,-0.378371447,-0.004557512,0.003277682,0.925636828,-0.001532295,0.014538449,0.003495544,0.22499074,-0.054235578,0.019863054
1678956296,234,1678956296,400768000,-0.000537915,0.000517483,0.000259959,-0.377545416,-0.005028021,0.003547711,0.925970674,0.003443265,0.012246883,0.001271563,0.174978018,-0.018856633,0.119051866
1678956296,235,1678956296,400768000,-0.000537915,0.000517483,0.000259959,-0.377545416,-0.005028021,0.003547711,0.925970674,0.003443265,0.012246883,0.001271563,0.174978018,-0.018856633,0.119051866
1678956296,236,1678956296,400768000,-0.000537915,0.000517483,0.000259959,-0.377545416,-0.005028021,0.003547711,0.925970674,0.003443265,0.012246883,0.001271563,0.174978018,-0.018856633,0.119051866
1678956296,237,1678956296,411075000,-0.000516839,0.000585228,0.000265524,-0.377228677,-0.00517696,0.003820817,0.92609781,0.004999673,0.012772461,0.000723301,0.054644648,-0.004928797,0.105215549
1678956296,238,1678956296,411075000,-0.000516839,0.000585228,0.000265524,-0.377228677,-0.00517696,0.003820817,0.92609781,0.004999673,0.012772461,0.000723301,0.054644648,-0.004928797,0.105215549
1678956296,239,1678956296,416305000,-0.000333239,-0.000151513,0.000114662,-0.376459897,-0.005541206,0.004108127,0.926407218,0.010104734,-0.00253106,-0.010235013,0.229046628,-0.115365192,0.088614091
1678956296,240,1678956296,416305000,-0.000333239,-0.000151513,0.000114662,-0.376459897,-0.005541206,0.004108127,0.926407218,0.010104734,-0.00253106,-0.010235013,0.229046628,-0.115365192,0.088614091
1678956296,241,1678956296,416305000,-0.000333239,-0.000151513,0.000114662,-0.376459897,-0.005541206,0.004108127,0.926407218,0.010104734,-0.00253106,-0.010235013,0.229046628,-0.115365192,0.088614091
1678956296,242,1678956296,416305000,-0.000333239,-0.000151513,0.000114662,-0.376459897,-0.005541206,0.004108127,0.926407218,0.010104734,-0.00253106,-0.010235013,0.229046628,-0.115365192,0.088614091
1678956296,243,1678956296,416305000,-0.000333239,-0.000151513,0.000114662,-0.376459897,-0.005541206,0.004108127,0.926407218,0.010104734,-0.00253106,-0.010235013,0.229046628,-0.115365192,0.088614091
1678956296,244,1678956296,431864000,-0.000279423,-0.000161821,5.69E-05,-0.376030236,-0.005906235,0.004241263,0.926578879,0.011409187,-0.001908303,-0.01308794,0.115367584,-0.087380081,0.077922024
1678956296,245,1678956296,432762000,-0.000202965,-0.000249437,1.71E-05,-0.375770926,-0.006267773,0.004421796,0.926680863,0.008261864,-0.00908892,-0.005227668,0.161602512,-0.058150996,0.111203477
1678956296,246,1678956296,440375000,-0.000126143,-0.000343585,-2.20E-05,-0.37539196,-0.006802294,0.004795676,0.926828802,0.0071033,-0.0119255,-0.002238484,0.023609819,-0.057899568,0.067825079
1678956296,247,1678956296,440375000,-0.000126143,-0.000343585,-2.20E-05,-0.37539196,-0.006802294,0.004795676,0.926828802,0.0071033,-0.0119255,-0.002238484,0.023609819,-0.057899568,0.067825079
1678956296,248,1678956296,445708000,-8.51E-05,-0.000397135,-5.54E-05,-0.375202835,-0.00700315,0.004871209,0.926903486,0.007499935,-0.011536569,-0.003265516,0.093439229,-0.088168077,0.061791878
1678956296,249,1678956296,451978000,-0.0004582,-0.000314912,0.000222315,-0.374595493,-0.007370866,0.005012073,0.9271456,0.000752336,-0.009528585,0.003706298,0.040253997,-0.113523975,0.087647036
1678956296,250,1678956296,451978000,-0.0004582,-0.000314912,0.000222315,-0.374595493,-0.007370866,0.005012073,0.9271456,0.000752336,-0.009528585,0.003706298,0.040253997,-0.113523975,0.087647036
1678956296,251,1678956296,451978000,-0.0004582,-0.000314912,0.000222315,-0.374595493,-0.007370866,0.005012073,0.9271456,0.000752336,-0.009528585,0.003706298,0.040253997,-0.113523975,0.087647036
1678956296,252,1678956296,451978000,-0.0004582,-0.000314912,0.000222315,-0.374595493,-0.007370866,0.005012073,0.9271456,0.000752336,-0.009528585,0.003706298,0.040253997,-0.113523975,0.087647036
1678956296,253,1678956296,451978000,-0.0004582,-0.000314912,0.000222315,-0.374595493,-0.007370866,0.005012073,0.9271456,0.000752336,-0.009528585,0.003706298,0.040253997,-0.113523975,0.087647036
1678956296,254,1678956296,465202000,-0.000454726,-0.000354648,0.000239621,-0.374651015,-0.007694241,0.00509937,0.92711997,0.000574281,-0.009552388,0.0045324,-0.06931515,-0.105289191,0.062525511
1678956296,255,1678956296,466250000,-0.000416032,-0.000425291,0.000221235,-0.374185264,-0.008283198,0.005351556,0.927301526,0.003394135,-0.008644171,3.38E-05,0.051137902,-0.068320945,0.151107341
1678956296,256,1678956296,474356000,-0.000397507,-0.000510906,0.000225742,-0.374358684,-0.008561725,0.005619464,0.927227437,0.004015379,-0.011017112,-0.000226541,-0.105813071,-0.062959835,0.100757286
1678956296,257,1678956296,474356000,-0.000397507,-0.000510906,0.000225742,-0.374358684,-0.008561725,0.005619464,0.927227437,0.004015379,-0.011017112,-0.000226541,-0.105813071,-0.062959835,0.100757286
1678956296,258,1678956296,474356000,-0.000397507,-0.000510906,0.000225742,-0.374358684,-0.008561725,0.005619464,0.927227437,0.004015379,-0.011017112,-0.000226541,-0.105813071,-0.062959835,0.100757286
1678956296,259,1678956296,480986000,-0.000394421,-0.000108984,0.000128173,-0.373900861,-0.009075593,0.005513202,0.927407861,0.00177446,-0.00494859,-0.015781416,0.118243039,-0.125980392,0.015584432
1678956296,260,1678956296,480986000,-0.000394421,-0.000108984,0.000128173,-0.373900861,-0.009075593,0.005513202,0.927407861,0.00177446,-0.00494859,-0.015781416,0.118243039,-0.125980392,0.015584432
1678956296,261,1678956296,480986000,-0.000394421,-0.000108984,0.000128173,-0.373900861,-0.009075593,0.005513202,0.927407861,0.00177446,-0.00494859,-0.015781416,0.118243039,-0.125980392,0.015584432
1678956296,262,1678956296,489519000,-0.000384463,-0.000143888,2.24E-05,-0.373950601,-0.009361845,0.005497979,0.927385092,0.001674888,-0.006203615,-0.020793082,-0.152350202,-0.110004857,0.068410799
1678956296,263,1678956296,489519000,-0.000384463,-0.000143888,2.24E-05,-0.373950601,-0.009361845,0.005497979,0.927385092,0.001674888,-0.006203615,-0.020793082,-0.152350202,-0.110004857,0.068410799
1678956296,264,1678956296,489519000,-0.000384463,-0.000143888,2.24E-05,-0.373950601,-0.009361845,0.005497979,0.927385092,0.001674888,-0.006203615,-0.020793082,-0.152350202,-0.110004857,0.068410799
1678956297,265,1678956296,499359000,-0.000375608,-0.000203723,-0.000102104,-0.374280423,-0.009683291,0.005573237,0.927248299,0.001563004,-0.00827954,-0.025438227,-0.041684695,-0.099153042,0.061462246
1678956297,266,1678956296,500220000,-0.000314969,-0.00049158,-0.000248684,-0.374004334,-0.010124115,0.005602667,0.927354813,0.005257511,-0.027092585,-0.021995081,-0.159675434,-0.106731035,0.08230219
1678956297,267,1678956296,507210000,-0.000287212,-0.000645094,-0.000366698,-0.374456674,-0.010497335,0.005720832,0.927167356,0.006065367,-0.033580776,-0.024495775,-0.022789221,-0.111384869,0.075378373
1678956297,268,1678956296,513875000,-0.000337776,0.000156799,0.00035484,-0.374447495,-0.0109845,0.005786923,0.927165031,0.003859874,-0.003333922,-0.009733913,-0.158528998,-0.076751187,0.020782359
1678956297,269,1678956296,513875000,-0.000337776,0.000156799,0.00035484,-0.374447495,-0.0109845,0.005786923,0.927165031,0.003859874,-0.003333922,-0.009733913,-0.158528998,-0.076751187,0.020782359
1678956297,270,1678956296,513875000,-0.000337776,0.000156799,0.00035484,-0.374447495,-0.0109845,0.005786923,0.927165031,0.003859874,-0.003333922,-0.009733913,-0.158528998,-0.076751187,0.020782359
1678956297,271,1678956296,513875000,-0.000337776,0.000156799,0.00035484,-0.374447495,-0.0109845,0.005786923,0.927165031,0.003859874,-0.003333922,-0.009733913,-0.158528998,-0.076751187,0.020782359
1678956297,272,1678956296,513875000,-0.000337776,0.000156799,0.00035484,-0.374447495,-0.0109845,0.005786923,0.927165031,0.003859874,-0.003333922,-0.009733913,-0.158528998,-0.076751187,0.020782359
1678956297,273,1678956296,527463000,-0.000317871,0.000124952,0.000299223,-0.374914616,-0.011256297,0.005733238,0.926973283,0.004013494,-0.005134193,-0.011610132,-0.087572411,-0.13796933,-0.007715968
1678956297,274,1678956296,535339000,-0.000191088,-0.000104855,0.000114082,-0.375011176,-0.012056536,0.005380638,0.926926255,0.009129263,-0.018448986,-0.015258152,-0.130572408,-0.120253831,0.056770097
1678956297,275,1678956296,535339000,-0.000191088,-0.000104855,0.000114082,-0.375011176,-0.012056536,0.005380638,0.926926255,0.009129263,-0.018448986,-0.015258152,-0.130572408,-0.120253831,0.056770097
1678956297,276,1678956296,543553000,-0.000147989,-0.000189415,5.40E-05,-0.375107288,-0.012315284,0.005334444,0.926884294,0.009438728,-0.019550223,-0.014816208,0.062731877,-0.062543109,-0.017983299
1678956297,277,1678956296,548879000,-4.86E-05,6.01E-05,0.000374933,-0.37546277,-0.012637007,0.005346949,0.926735938,0.011133477,0.000673486,-0.006207579,-0.087568872,-0.138589486,0.019288072
1678956297,278,1678956296,548879000,-4.86E-05,6.01E-05,0.000374933,-0.37546277,-0.012637007,0.005346949,0.926735938,0.011133477,0.000673486,-0.006207579,-0.087568872,-0.138589486,0.019288072
1678956297,279,1678956296,548879000,-4.86E-05,6.01E-05,0.000374933,-0.37546277,-0.012637007,0.005346949,0.926735938,0.011133477,0.000673486,-0.006207579,-0.087568872,-0.138589486,0.019288072
1678956297,280,1678956296,548879000,-4.86E-05,6.01E-05,0.000374933,-0.37546277,-0.012637007,0.005346949,0.926735938,0.011133477,0.000673486,-0.006207579,-0.087568872,-0.138589486,0.019288072
1678956297,281,1678956296,548879000,-4.86E-05,6.01E-05,0.000374933,-0.37546277,-0.012637007,0.005346949,0.926735938,0.011133477,0.000673486,-0.006207579,-0.087568872,-0.138589486,0.019288072
1678956297,282,1678956296,548879000,-4.86E-05,6.01E-05,0.000374933,-0.37546277,-0.012637007,0.005346949,0.926735938,0.011133477,0.000673486,-0.006207579,-0.087568872,-0.138589486,0.019288072
1678956297,283,1678956296,564495000,-5.53E-05,7.16E-05,0.0003175,-0.37547642,-0.012948951,0.00523467,0.926726699,0.004461859,0.002945438,-0.007932466,0.002713727,-0.099991605,-0.022435367
1678956297,284,1678956296,565503000,-2.76E-05,9.11E-05,0.000227737,-0.375477552,-0.013228198,0.004988472,0.926723719,0.001015394,0.004694366,-0.009044874,-0.074877322,-0.102254465,0.006763546
1678956297,285,1678956296,565503000,-2.76E-05,9.11E-05,0.000227737,-0.375477552,-0.013228198,0.004988472,0.926723719,0.001015394,0.004694366,-0.009044874,-0.074877322,-0.102254465,0.006763546
1678956297,286,1678956296,565503000,-2.76E-05,9.11E-05,0.000227737,-0.375477552,-0.013228198,0.004988472,0.926723719,0.001015394,0.004694366,-0.009044874,-0.074877322,-0.102254465,0.006763546
1678956297,287,1678956296,573502000,-2.19E-05,0.000147251,0.000257009,-0.375628948,-0.013510186,0.004909873,0.92665869,8.10E-05,0.008503014,-0.001412143,0.035269145,-0.110431515,0.006951658
1678956297,288,1678956296,578655000,-0.000124494,0.000597619,0.000599627,-0.375361651,-0.013850803,0.004644826,0.926763296,-0.003753837,0.019060226,0.004475942,-0.080442749,-0.056258906,0.001894392
1678956297,289,1678956296,578655000,-0.000124494,0.000597619,0.000599627,-0.375361651,-0.013850803,0.004644826,0.926763296,-0.003753837,0.019060226,0.004475942,-0.080442749,-0.056258906,0.001894392
1678956297,290,1678956296,585532000,-0.000160326,0.000665836,0.000616462,-0.375441372,-0.014014587,0.004618138,0.926728666,-0.006745134,0.017176375,0.004542682,0.011983543,-0.080017969,0.033040404
1678956297,291,1678956296,585532000,-0.000160326,0.000665836,0.000616462,-0.375441372,-0.014014587,0.004618138,0.926728666,-0.006745134,0.017176375,0.004542682,0.011983543,-0.080017969,0.033040404
1678956297,292,1678956296,585532000,-0.000160326,0.000665836,0.000616462,-0.375441372,-0.014014587,0.004618138,0.926728666,-0.006745134,0.017176375,0.004542682,0.011983543,-0.080017969,0.033040404
1678956297,293,1678956296,585532000,-0.000160326,0.000665836,0.000616462,-0.375441372,-0.014014587,0.004618138,0.926728666,-0.006745134,0.017176375,0.004542682,0.011983543,-0.080017969,0.033040404
1678956297,294,1678956296,585532000,-0.000160326,0.000665836,0.000616462,-0.375441372,-0.014014587,0.004618138,0.926728666,-0.006745134,0.017176375,0.004542682,0.011983543,-0.080017969,0.033040404
1678956297,295,1678956296,597974000,-0.000198658,0.000785099,0.000662237,-0.37547949,-0.014226309,0.004606581,0.926710069,-0.008689872,0.01968639,0.006684115,-0.095643349,-0.068248823,0.00239513
1678956297,296,1678956296,598953000,-0.000305102,0.001057339,0.000783413,-0.375532389,-0.014482892,0.004482762,0.926685274,-0.012587972,0.024579095,0.010908666,0.084685907,-0.036614176,-0.004461112
1678956297,297,1678956296,598953000,-0.000305102,0.001057339,0.000783413,-0.375532389,-0.014482892,0.004482762,0.926685274,-0.012587972,0.024579095,0.010908666,0.084685907,-0.036614176,-0.004461112
1678956297,298,1678956296,605131000,-0.000365064,0.001243947,0.000786147,-0.375509977,-0.014530179,0.004419783,0.926693857,-0.013626793,0.032060727,0.004434925,-0.074081697,-0.035259597,-0.016844248
1678956297,299,1678956296,605131000,-0.000365064,0.001243947,0.000786147,-0.375509977,-0.014530179,0.004419783,0.926693857,-0.013626793,0.032060727,0.004434925,-0.074081697,-0.035259597,-0.016844248
1678956297,300,1678956296,612054000,-0.000437248,0.001412933,0.00080225,-0.375635177,-0.014656707,0.004347724,0.926641524,-0.015252783,0.035497401,0.002902264,0.052063558,-0.081723705,0.000840066
1678956297,301,1678956296,612054000,-0.000437248,0.001412933,0.00080225,-0.375635177,-0.014656707,0.004347724,0.926641524,-0.015252783,0.035497401,0.002902264,0.052063558,-0.081723705,0.000840066
1678956297,302,1678956296,618241000,-0.000307495,0.000516859,0.00071235,-0.375368536,-0.014983044,0.004244295,0.926744819,-0.012818871,0.020733783,-0.001967849,0.08262182,-0.054865554,0.027664477
1678956297,303,1678956296,618241000,-0.000307495,0.000516859,0.00071235,-0.375368536,-0.014983044,0.004244295,0.926744819,-0.012818871,0.020733783,-0.001967849,0.08262182,-0.054865554,0.027664477
1678956297,304,1678956296,618241000,-0.000307495,0.000516859,0.00071235,-0.375368536,-0.014983044,0.004244295,0.926744819,-0.012818871,0.020733783,-0.001967849,0.08262182,-0.054865554,0.027664477
