Time,header.seq,header.stamp.secs,header.stamp.nsecs,pose.position.x,pose.position.y,pose.position.z,pose.orientation.x,pose.orientation.y,pose.orientation.z,pose.orientation.w,twist.linear.x,twist.linear.y,twist.linear.z,twist.angular.x,twist.angular.y,twist.angular.z
1678956296,1,1678956295,344665000,-0.000352688,0.000236916,-0.000262451,-0.397973269,-0.009155183,0.017128142,0.917191446,0.013742691,-0.001845911,-0.003209746,-0.036587764,0.001562421,0.001129327
1678956296,2,1678956295,449149000,-0.000341549,-0.000720179,-0.000457675,-0.397753388,-0.009334032,0.017046826,0.917286575,0.001262995,0.025949754,-0.004615034,0.113653801,-0.000324966,-0.007535601
1678956296,3,1678956295,550549000,-0.000111113,-0.000477172,-0.000730006,-0.397634774,-0.009286535,0.017030336,0.917338669,-0.002149962,0.03623515,0.019137418,0.019457871,-0.001336196,-0.035887193
1678956296,4,1678956295,651256000,-8.48E-05,-0.000840166,-0.001169371,-0.39764753,-0.009601231,0.016681874,0.917336345,-2.57E-05,0.020603482,-0.008467968,-0.005303033,0.015061005,-0.029907769
1678956296,5,1678956295,651256000,-8.48E-05,-0.000840166,-0.001169371,-0.39764753,-0.009601231,0.016681874,0.917336345,-2.57E-05,0.020603482,-0.008467968,-0.005303033,0.015061005,-0.029907769
1678956296,6,1678956295,666540000,-5.45E-05,-0.000848463,-0.00124599,-0.398035586,-0.009487322,0.016903149,0.91716522,0.002396968,-0.003140446,-0.006239717,-0.016344059,-0.004781511,-0.024704538
1678956296,7,1678956295,666540000,-5.45E-05,-0.000848463,-0.00124599,-0.398035586,-0.009487322,0.016903149,0.91716522,0.002396968,-0.003140446,-0.006239717,-0.016344059,-0.004781511,-0.024704538
1678956296,8,1678956295,666540000,-5.45E-05,-0.000848463,-0.00124599,-0.398035586,-0.009487322,0.016903149,0.91716522,0.002396968,-0.003140446,-0.006239717,-0.016344059,-0.004781511,-0.024704538
1678956296,9,1678956295,674201000,-4.15E-05,-0.000868716,-0.001274483,-0.398067892,-0.009480643,0.016784498,0.917153478,0.002869682,-0.007058179,-0.006011589,0.029696999,-0.032506343,-0.05236201
1678956296,10,1678956295,680106000,-4.52E-05,-0.000807838,-0.00126866,-0.397951216,-0.009537292,0.016663868,0.917205691,0.000571321,0.004195946,-0.001390574,0.031828023,-0.035660006,-0.005453426
1678956296,11,1678956295,680106000,-4.52E-05,-0.000807838,-0.00126866,-0.397951216,-0.009537292,0.016663868,0.917205691,0.000571321,0.004195946,-0.001390574,0.031828023,-0.035660006,-0.005453426
1678956296,12,1678956295,688111000,-0.000178095,-0.000757266,-0.00154579,-0.398530841,-0.009548102,0.016722543,0.916952789,-0.002402302,-0.001740351,-0.006081202,-0.103209138,0.055503167,-0.04289775
1678956296,13,1678956295,688111000,-0.000178095,-0.000757266,-0.00154579,-0.398530841,-0.009548102,0.016722543,0.916952789,-0.002402302,-0.001740351,-0.006081202,-0.103209138,0.055503167,-0.04289775
1678956296,14,1678956295,688111000,-0.000178095,-0.000757266,-0.00154579,-0.398530841,-0.009548102,0.016722543,0.916952789,-0.002402302,-0.001740351,-0.006081202,-0.103209138,0.055503167,-0.04289775
1678956296,15,1678956295,698880000,-0.000149304,-0.000717863,-0.001713693,-0.398476601,-0.009394884,0.016662223,0.916979074,0.001401147,0.003040835,-0.021517146,0.161863759,0.001945729,0.004015067
1678956296,16,1678956295,700828000,-0.00013667,-0.000666919,-0.001807058,-0.397952795,-0.009509612,0.016745845,0.917203724,0.002248197,0.006503054,-0.023922976,0.234899491,-0.01851159,0.06365528
1678956296,17,1678956295,706311000,-0.000110555,-0.000567773,-0.001959893,-0.398123741,-0.009431878,0.016911451,0.917127371,0.003391719,0.014546713,-0.012862784,-0.141273096,0.022471014,-0.026237473
1678956296,18,1678956295,706311000,-0.000110555,-0.000567773,-0.001959893,-0.398123741,-0.009431878,0.016911451,0.917127371,0.003391719,0.014546713,-0.012862784,-0.141273096,0.022471014,-0.026237473
1678956296,20,1678956295,712510000,-9.16E-05,-0.000484801,-0.002013045,-0.398221225,-0.009452842,0.016810041,0.91708672,0.00404794,0.017737752,-0.00924069,0.014489247,-0.081963435,-0.022137027
1678956296,21,1678956295,718722000,-0.000141048,-0.00073731,-0.0013932,-0.397825509,-0.009670212,0.016644815,0.917259216,0.004185814,0.030732406,0.007879203,0.169673145,-0.06737683,0.004850353
1678956296,22,1678956295,718722000,-0.000141048,-0.00073731,-0.0013932,-0.397825509,-0.009670212,0.016644815,0.917259216,0.004185814,0.030732406,0.007879203,0.169673145,-0.06737683,0.004850353
1678956296,23,1678956295,718722000,-0.000141048,-0.00073731,-0.0013932,-0.397825509,-0.009670212,0.016644815,0.917259216,0.004185814,0.030732406,0.007879203,0.169673145,-0.06737683,0.004850353
1678956296,24,1678956295,735227000,-0.000131317,-0.00094422,-0.001660997,-0.397647232,-0.009488139,0.016899545,0.917333722,0.000678002,-0.015716283,-0.017327812,-0.013850081,-0.021415278,0.043440256
1678956296,25,1678956295,742434000,-0.000129139,-0.001046128,-0.001761964,-0.397709966,-0.009597418,0.016871018,0.917305887,7.85E-05,-0.024474662,-0.021876153,-0.028718358,-0.05917985,-0.032737993
1678956296,26,1678956295,748708000,-0.000140329,-0.000689485,-0.00135156,-0.397647113,-0.009629738,0.01669706,0.917335987,-0.001460602,0.032186486,0.009132993,0.040596552,0.018800322,0.027626781
1678956296,27,1678956295,748708000,-0.000140329,-0.000689485,-0.00135156,-0.397647113,-0.009629738,0.01669706,0.917335987,-0.001460602,0.032186486,0.009132993,0.040596552,0.018800322,0.027626781
1678956296,28,1678956295,748708000,-0.000140329,-0.000689485,-0.00135156,-0.397647113,-0.009629738,0.01669706,0.917335987,-0.001460602,0.032186486,0.009132993,0.040596552,0.018800322,0.027626781
1678956296,29,1678956295,748708000,-0.000140329,-0.000689485,-0.00135156,-0.397647113,-0.009629738,0.01669706,0.917335987,-0.001460602,0.032186486,0.009132993,0.040596552,0.018800322,0.027626781
1678956296,30,1678956295,765301000,-0.000178007,-0.000622881,-0.00137759,-0.397910774,-0.009468491,0.016844489,0.917220592,-0.003320468,0.004230543,-0.002878102,0.156729966,-0.043270044,-0.047706231
1678956296,31,1678956295,765301000,-0.000178007,-0.000622881,-0.00137759,-0.397910774,-0.009468491,0.016844489,0.917220592,-0.003320468,0.004230543,-0.002878102,0.156729966,-0.043270044,-0.047706231
1678956296,32,1678956295,765301000,-0.000178007,-0.000622881,-0.00137759,-0.397910774,-0.009468491,0.016844489,0.917220592,-0.003320468,0.004230543,-0.002878102,0.156729966,-0.043270044,-0.047706231
1678956296,33,1678956295,773462000,-0.000193314,-0.000535806,-0.001370918,-0.39789024,-0.009599903,0.016687809,0.917231023,-0.001106507,0.007328597,0.002073367,-0.098303199,0.030190287,0.006154131
1678956296,34,1678956295,773462000,-0.000193314,-0.000535806,-0.001370918,-0.39789024,-0.009599903,0.016687809,0.917231023,-0.001106507,0.007328597,0.002073367,-0.098303199,0.030190287,0.006154131
1678956296,35,1678956295,779084000,-0.000197083,-0.000497903,-0.001357052,-0.397897393,-0.009492782,0.016770173,0.917227566,-0.000337217,0.007614532,0.003279365,0.032915447,0.050370928,0.02048859
1678956296,36,1678956295,779084000,-0.000197083,-0.000497903,-0.001357052,-0.397897393,-0.009492782,0.016770173,0.917227566,-0.000337217,0.007614532,0.003279365,0.032915447,0.050370928,0.02048859
1678956296,37,1678956295,785563000,-0.000335131,-0.000986126,-0.001146892,-0.397773325,-0.009471088,0.016705902,0.91728276,0.000266718,-0.00468833,0.024095418,-0.017948747,-0.000279072,0.01759211
1678956296,38,1678956295,785563000,-0.000335131,-0.000986126,-0.001146892,-0.397773325,-0.009471088,0.016705902,0.91728276,0.000266718,-0.00468833,0.024095418,-0.017948747,-0.000279072,0.01759211
1678956296,39,1678956295,785563000,-0.000335131,-0.000986126,-0.001146892,-0.397773325,-0.009471088,0.016705902,0.91728276,0.000266718,-0.00468833,0.024095418,-0.017948747,-0.000279072,0.01759211
1678956296,40,1678956295,785563000,-0.000335131,-0.000986126,-0.001146892,-0.397773325,-0.009471088,0.016705902,0.91728276,0.000266718,-0.00468833,0.024095418,-0.017948747,-0.000279072,0.01759211
1678956296,41,1678956295,785563000,-0.000335131,-0.000986126,-0.001146892,-0.397773325,-0.009471088,0.016705902,0.91728276,0.000266718,-0.00468833,0.024095418,-0.017948747,-0.000279072,0.01759211
1678956296,42,1678956295,801203000,-0.00037833,-0.001061579,-0.001048466,-0.397758484,-0.009483504,0.016502587,0.917292714,0.000314693,-0.00084684,0.011131937,0.220033973,-0.019894663,-0.004472127
1678956296,43,1678956295,801203000,-0.00037833,-0.001061579,-0.001048466,-0.397758484,-0.009483504,0.016502587,0.917292714,0.000314693,-0.00084684,0.011131937,0.220033973,-0.019894663,-0.004472127
1678956296,44,1678956295,808252000,-0.000372836,-0.001060466,-0.000996048,-0.397329003,-0.009554725,0.016568564,0.917476892,0.001447017,0.001411716,0.012725848,0.009845419,0.011456901,0.055983409
1678956296,45,1678956295,808252000,-0.000372836,-0.001060466,-0.000996048,-0.397329003,-0.009554725,0.016568564,0.917476892,0.001447017,0.001411716,0.012725848,0.009845419,0.011456901,0.055983409
1678956296,46,1678956295,814427000,-0.000362187,-0.001044695,-0.00093064,-0.397711039,-0.009530009,0.016708989,0.917309105,0.00259521,0.003191511,0.014646119,-0.242648661,0.028060844,0.028983418
1678956296,47,1678956295,814427000,-0.000362187,-0.001044695,-0.00093064,-0.397711039,-0.009530009,0.016708989,0.917309105,0.00259521,0.003191511,0.014646119,-0.242648661,0.028060844,0.028983418
1678956296,48,1678956295,814427000,-0.000362187,-0.001044695,-0.00093064,-0.397711039,-0.009530009,0.016708989,0.917309105,0.00259521,0.003191511,0.014646119,-0.242648661,0.028060844,0.028983418
1678956296,49,1678956295,814427000,-0.000362187,-0.001044695,-0.00093064,-0.397711039,-0.009530009,0.016708989,0.917309105,0.00259521,0.003191511,0.014646119,-0.242648661,0.028060844,0.028983418
1678956296,50,1678956295,826918000,-0.000204385,-0.000699555,-0.001284603,-0.397983968,-0.009490797,0.016827801,0.917188942,0.001879425,0.016881688,-0.003580203,0.045693193,-0.024169134,-0.030504171
1678956296,51,1678956295,826918000,-0.000204385,-0.000699555,-0.001284603,-0.397983968,-0.009490797,0.016827801,0.917188942,0.001879425,0.016881688,-0.003580203,0.045693193,-0.024169134,-0.030504171
1678956296,52,1678956295,831874000,-0.000187295,-0.000545847,-0.001346817,-0.397386342,-0.009700008,0.016626136,0.917449534,0.001206323,0.021691673,-0.008452551,0.001575231,-0.014375808,0.012768279
1678956296,53,1678956295,835416000,-0.000182092,-0.000417121,-0.00140775,-0.397447914,-0.009639882,0.016695131,0.917422235,0.000824116,0.025322191,-0.011387368,0.003714415,0.072239533,0.011474289
1678956296,54,1678956295,835416000,-0.000182092,-0.000417121,-0.00140775,-0.397447914,-0.009639882,0.016695131,0.917422235,0.000824116,0.025322191,-0.011387368,0.003714415,0.072239533,0.011474289
1678956296,55,1678956295,835416000,-0.000182092,-0.000417121,-0.00140775,-0.397447914,-0.009639882,0.016695131,0.917422235,0.000824116,0.025322191,-0.011387368,0.003714415,0.072239533,0.011474289
1678956296,56,1678956295,846756000,-0.000172195,-0.000447282,-0.001280996,-0.397788286,-0.009502573,0.016870337,0.917272866,0.000769579,-8.32E-06,0.006140374,-0.113831654,-0.037901938,-0.002622352
1678956296,57,1678956295,852301000,-0.00024416,-6.03E-05,-0.00145964,-0.397624254,-0.009604414,0.016691424,0.917346299,-0.004528703,0.018571975,-0.013910423,0.100598313,0.020281002,-0.041510299
1678956296,58,1678956295,852301000,-0.00024416,-6.03E-05,-0.00145964,-0.397624254,-0.009604414,0.016691424,0.917346299,-0.004528703,0.018571975,-0.013910423,0.100598313,0.020281002,-0.041510299
1678956296,59,1678956295,852301000,-0.00024416,-6.03E-05,-0.00145964,-0.397624254,-0.009604414,0.016691424,0.917346299,-0.004528703,0.018571975,-0.013910423,0.100598313,0.020281002,-0.041510299
1678956296,60,1678956295,852301000,-0.00024416,-6.03E-05,-0.00145964,-0.397624254,-0.009604414,0.016691424,0.917346299,-0.004528703,0.018571975,-0.013910423,0.100598313,0.020281002,-0.041510299
1678956296,61,1678956295,852301000,-0.00024416,-6.03E-05,-0.00145964,-0.397624254,-0.009604414,0.016691424,0.917346299,-0.004528703,0.018571975,-0.013910423,0.100598313,0.020281002,-0.041510299
1678956296,62,1678956295,852301000,-0.00024416,-6.03E-05,-0.00145964,-0.397624254,-0.009604414,0.016691424,0.917346299,-0.004528703,0.018571975,-0.013910423,0.100598313,0.020281002,-0.041510299
1678956296,63,1678956295,867932000,-0.000274529,0.000205293,-0.00166769,-0.397944987,-0.0093825,0.016775487,0.917207897,0.001208133,0.016920017,-0.012422489,-0.011533811,-0.025707055,-0.027188201
1678956296,64,1678956295,867932000,-0.000274529,0.000205293,-0.00166769,-0.397944987,-0.0093825,0.016775487,0.917207897,0.001208133,0.016920017,-0.012422489,-0.011533811,-0.025707055,-0.027188201
1678956296,65,1678956295,867932000,-0.000274529,0.000205293,-0.00166769,-0.397944987,-0.0093825,0.016775487,0.917207897,0.001208133,0.016920017,-0.012422489,-0.011533811,-0.025707055,-0.027188201
1678956296,66,1678956295,874291000,-0.000262107,0.0002876,-0.0017243,-0.397898108,-0.00946785,0.016684467,0.917229116,0.00379379,0.016092112,-0.010446172,0.069160819,-0.057550147,-0.005192579
1678956296,67,1678956295,874291000,-0.000262107,0.0002876,-0.0017243,-0.397898108,-0.00946785,0.016684467,0.917229116,0.00379379,0.016092112,-0.010446172,0.069160819,-0.057550147,-0.005192579
1678956296,68,1678956295,881383000,-0.000236205,0.000366344,-0.001778341,-0.397791296,-0.009570569,0.016666103,0.917274594,0.00638283,0.015254443,-0.009307459,-0.038578045,-0.002854349,0.020444725
1678956296,69,1678956295,881383000,-0.000236205,0.000366344,-0.001778341,-0.397791296,-0.009570569,0.016666103,0.917274594,0.00638283,0.015254443,-0.009307459,-0.038578045,-0.002854349,0.020444725
1678956296,70,1678956295,881383000,-0.000236205,0.000366344,-0.001778341,-0.397791296,-0.009570569,0.016666103,0.917274594,0.00638283,0.015254443,-0.009307459,-0.038578045,-0.002854349,0.020444725
1678956296,71,1678956295,881383000,-0.000236205,0.000366344,-0.001778341,-0.397791296,-0.009570569,0.016666103,0.917274594,0.00638283,0.015254443,-0.009307459,-0.038578045,-0.002854349,0.020444725
1678956296,72,1678956295,881383000,-0.000236205,0.000366344,-0.001778341,-0.397791296,-0.009570569,0.016666103,0.917274594,0.00638283,0.015254443,-0.009307459,-0.038578045,-0.002854349,0.020444725
1678956296,73,1678956295,895681000,-0.000283144,0.000497418,-0.001859514,-0.398034036,-0.009516916,0.016746527,0.917168438,-0.003234318,0.022336006,-0.012806144,-0.115789443,0.047493864,0.015325748
1678956296,74,1678956295,900114000,-0.000472001,0.000160591,-0.00098455,-0.397408575,-0.00969187,0.016789878,0.917437017,-0.007246303,0.004805674,0.007238827,0.059096064,0.001733905,0.021543998
1678956296,75,1678956295,900114000,-0.000472001,0.000160591,-0.00098455,-0.397408575,-0.00969187,0.016789878,0.917437017,-0.007246303,0.004805674,0.007238827,0.059096064,0.001733905,0.021543998
1678956296,76,1678956295,903407000,-0.000508869,0.000168556,-0.000955945,-0.397428632,-0.009652039,0.016868096,0.917427301,-0.007544903,-0.001844176,0.005983038,-0.131845608,0.035536282,0.017939091
1678956296,77,1678956295,903407000,-0.000508869,0.000168556,-0.000955945,-0.397428632,-0.009652039,0.016868096,0.917427301,-0.007544903,-0.001844176,0.005983038,-0.131845608,0.035536282,0.017939091
1678956296,78,1678956295,903407000,-0.000508869,0.000168556,-0.000955945,-0.397428632,-0.009652039,0.016868096,0.917427301,-0.007544903,-0.001844176,0.005983038,-0.131845608,0.035536282,0.017939091
1678956296,79,1678956295,911495000,-0.0005478,0.000142997,-0.00091629,-0.397824496,-0.009635485,0.016917862,0.917254984,-0.007846136,-0.008465554,0.006211432,-0.115445204,-0.030262891,0.017088102
1678956296,80,1678956295,911495000,-0.0005478,0.000142997,-0.00091629,-0.397824496,-0.009635485,0.016917862,0.917254984,-0.007846136,-0.008465554,0.006211432,-0.115445204,-0.030262891,0.017088102
1678956296,81,1678956295,917239000,-0.000572548,0.000467171,-0.000814606,-0.397914052,-0.009776612,0.016836308,0.917216063,-0.005869791,0.03798167,0.015069011,-0.009595838,-0.084945351,-0.054121848
1678956296,82,1678956295,917239000,-0.000572548,0.000467171,-0.000814606,-0.397914052,-0.009776612,0.016836308,0.917216063,-0.005869791,0.03798167,0.015069011,-0.009595838,-0.084945351,-0.054121848
1678956296,83,1678956295,917239000,-0.000572548,0.000467171,-0.000814606,-0.397914052,-0.009776612,0.016836308,0.917216063,-0.005869791,0.03798167,0.015069011,-0.009595838,-0.084945351,-0.054121848
1678956296,84,1678956295,917239000,-0.000572548,0.000467171,-0.000814606,-0.397914052,-0.009776612,0.016836308,0.917216063,-0.005869791,0.03798167,0.015069011,-0.009595838,-0.084945351,-0.054121848
1678956296,85,1678956295,917239000,-0.000572548,0.000467171,-0.000814606,-0.397914052,-0.009776612,0.016836308,0.917216063,-0.005869791,0.03798167,0.015069011,-0.009595838,-0.084945351,-0.054121848
1678956296,86,1678956295,933736000,-0.000455269,0.000252445,-0.000764832,-0.397117138,-0.009700257,0.016540481,0.91756767,-0.001307553,0.068667866,0.015939027,0.121311188,0.069912896,0.034911238
1678956296,87,1678956295,937137000,-0.000398836,-0.000210616,-0.000797499,-0.397498399,-0.009587625,0.016889283,0.91739738,0.005766175,-0.02161408,-0.000569602,-0.097027652,-0.024706729,0.006022715
1678956296,88,1678956295,942656000,-0.000320593,-0.000569222,-0.000839228,-0.397738934,-0.009838286,0.016511869,0.917297304,0.009901267,-0.051578641,-0.007693029,0.043045145,-0.054228667,-0.053792294
1678956296,89,1678956295,942656000,-0.000320593,-0.000569222,-0.000839228,-0.397738934,-0.009838286,0.016511869,0.917297304,0.009901267,-0.051578641,-0.007693029,0.043045145,-0.054228667,-0.053792294
1678956296,90,1678956295,949313000,-0.000397863,-0.0001166,-0.000786574,-0.39747709,-0.009812904,0.016431406,0.917412519,-0.003307526,0.019692354,0.000495595,0.131132349,0.052647647,-0.013635123
1678956296,91,1678956295,949313000,-0.000397863,-0.0001166,-0.000786574,-0.39747709,-0.009812904,0.016431406,0.917412519,-0.003307526,0.019692354,0.000495595,0.131132349,0.052647647,-0.013635123
1678956296,92,1678956295,949313000,-0.000397863,-0.0001166,-0.000786574,-0.39747709,-0.009812904,0.016431406,0.917412519,-0.003307526,0.019692354,0.000495595,0.131132349,0.052647647,-0.013635123
1678956296,93,1678956295,949313000,-0.000397863,-0.0001166,-0.000786574,-0.39747709,-0.009812904,0.016431406,0.917412519,-0.003307526,0.019692354,0.000495595,0.131132349,0.052647647,-0.013635123
1678956296,94,1678956295,949313000,-0.000397863,-0.0001166,-0.000786574,-0.39747709,-0.009812904,0.016431406,0.917412519,-0.003307526,0.019692354,0.000495595,0.131132349,0.052647647,-0.013635123
1678956296,95,1678956295,949313000,-0.000397863,-0.0001166,-0.000786574,-0.39747709,-0.009812904,0.016431406,0.917412519,-0.003307526,0.019692354,0.000495595,0.131132349,0.052647647,-0.013635123
1678956296,96,1678956295,965618000,-0.000438754,0.000173878,-0.001049344,-0.397729993,-0.009603444,0.016743202,0.917299449,-0.013027427,0.05490021,0.015184806,-0.062699482,0.016477264,0.04640457
1678956296,97,1678956295,966502000,-0.000394076,-9.66E-05,-0.001121075,-0.39790985,-0.009851738,0.016562579,0.917222142,-0.00154884,-0.002212392,0.001333513,0.069515511,-0.08548376,-0.047288716
1678956296,98,1678956295,972920000,-0.000399394,-0.000123457,-0.001124675,-0.397623837,-0.00992216,0.016449902,0.917347372,-0.000449589,-0.009434527,-0.000232194,0.06838876,0.013508516,-0.0029956
1678956296,99,1678956295,972920000,-0.000399394,-0.000123457,-0.001124675,-0.397623837,-0.00992216,0.016449902,0.917347372,-0.000449589,-0.009434527,-0.000232194,0.06838876,0.013508516,-0.0029956
1678956296,100,1678956295,979421000,-0.000421722,2.78E-05,-0.001087975,-0.397665918,-0.009831021,0.016569348,0.917328,-0.002560351,0.013782687,0.005399253,-0.06111208,0.070857547,0.06163539
1678956296,101,1678956295,979421000,-0.000421722,2.78E-05,-0.001087975,-0.397665918,-0.009831021,0.016569348,0.917328,-0.002560351,0.013782687,0.005399253,-0.06111208,0.070857547,0.06163539
1678956296,102,1678956295,987218000,-0.000190087,-0.001017919,-0.001029065,-0.397316784,-0.009752717,0.016747598,0.917476892,0.000513044,0.008805056,0.017528065,0.036249183,0.056971092,0.038861945
1678956296,103,1678956295,987218000,-0.000190087,-0.001017919,-0.001029065,-0.397316784,-0.009752717,0.016747598,0.917476892,0.000513044,0.008805056,0.017528065,0.036249183,0.056971092,0.038861945
1678956296,104,1678956295,987218000,-0.000190087,-0.001017919,-0.001029065,-0.397316784,-0.009752717,0.016747598,0.917476892,0.000513044,0.008805056,0.017528065,0.036249183,0.056971092,0.038861945
1678956296,105,1678956295,987218000,-0.000190087,-0.001017919,-0.001029065,-0.397316784,-0.009752717,0.016747598,0.917476892,0.000513044,0.008805056,0.017528065,0.036249183,0.056971092,0.038861945
1678956296,106,1678956295,998854000,-0.000160932,-0.001016137,-0.000910071,-0.397049665,-0.009772686,0.016646773,0.917594135,0.003293153,0.001294678,0.014830092,0.072988853,-0.055472653,-0.015298374
1678956296,107,1678956295,998854000,-0.000160932,-0.001016137,-0.000910071,-0.397049665,-0.009772686,0.016646773,0.917594135,0.003293153,0.001294678,0.014830092,0.072988853,-0.055472653,-0.015298374
1678956296,108,1678956296,2693000,-0.000119594,-0.001005208,-0.00075576,-0.397241741,-0.009888064,0.016651589,0.917509675,0.004995969,-0.000780476,0.0161763,-0.199237242,0.036780585,0.000842464
1678956296,109,1678956296,2693000,-0.000119594,-0.001005208,-0.00075576,-0.397241741,-0.009888064,0.016651589,0.917509675,0.004995969,-0.000780476,0.0161763,-0.199237242,0.036780585,0.000842464
1678956296,110,1678956296,2693000,-0.000119594,-0.001005208,-0.00075576,-0.397241741,-0.009888064,0.016651589,0.917509675,0.004995969,-0.000780476,0.0161763,-0.199237242,0.036780585,0.000842464
1678956296,111,1678956296,2693000,-0.000119594,-0.001005208,-0.00075576,-0.397241741,-0.009888064,0.016651589,0.917509675,0.004995969,-0.000780476,0.0161763,-0.199237242,0.036780585,0.000842464
1678956296,112,1678956296,18728000,-9.28E-05,-0.000908265,-0.000726555,-0.397607625,-0.009799205,0.016662298,0.917351902,0.005953246,0.013055068,0.010925074,-0.066175617,-0.013922537,-0.017918866
1678956296,113,1678956296,18728000,-9.28E-05,-0.000908265,-0.000726555,-0.397607625,-0.009799205,0.016662298,0.917351902,0.005953246,0.013055068,0.010925074,-0.066175617,-0.013922537,-0.017918866
1678956296,114,1678956296,24385000,-4.03E-05,-0.000790556,-0.000936284,-0.397627741,-0.009807297,0.016683249,0.917342722,0.007370817,0.02696046,-0.003861632,0.230032176,-0.066292912,0.005195392
1678956296,115,1678956296,27948000,1.20E-05,-0.000978885,-0.001077091,-0.397388488,-0.009587705,0.016732374,0.917447865,0.002501508,-0.023350425,-0.01384979,-0.064748302,-0.010516012,0.045405243
1678956296,116,1678956296,27948000,1.20E-05,-0.000978885,-0.001077091,-0.397388488,-0.009587705,0.016732374,0.917447865,0.002501508,-0.023350425,-0.01384979,-0.064748302,-0.010516012,0.045405243
1678956296,117,1678956296,27948000,1.20E-05,-0.000978885,-0.001077091,-0.397388488,-0.009587705,0.016732374,0.917447865,0.002501508,-0.023350425,-0.01384979,-0.064748302,-0.010516012,0.045405243
1678956296,118,1678956296,27948000,1.20E-05,-0.000978885,-0.001077091,-0.397388488,-0.009587705,0.016732374,0.917447865,0.002501508,-0.023350425,-0.01384979,-0.064748302,-0.010516012,0.045405243
1678956296,119,1678956296,39386000,2.06E-05,-0.001156307,-0.001183793,-0.397463441,-0.009766855,0.016774682,0.917412698,0.001532733,-0.036241993,-0.018857805,-0.082310833,-0.075239554,0.010113364
1678956296,120,1678956296,42214000,4.61E-05,-0.00097384,-0.001321527,-0.397439331,-0.009768995,0.016510662,0.917427957,0.001645664,0.010607772,-0.017931113,0.187709674,0.013936277,-0.004225639
1678956296,121,1678956296,42214000,4.61E-05,-0.00097384,-0.001321527,-0.397439331,-0.009768995,0.016510662,0.917427957,0.001645664,0.010607772,-0.017931113,0.187709674,0.013936277,-0.004225639
1678956296,122,1678956296,52241000,-0.000283618,-0.000702338,-0.000530042,-0.397012651,-0.009865149,0.016849641,0.91760546,-0.004818556,0.058564447,0.029622182,-0.110085644,0.076284245,0.017925357
1678956296,123,1678956296,52241000,-0.000283618,-0.000702338,-0.000530042,-0.397012651,-0.009865149,0.016849641,0.91760546,-0.004818556,0.058564447,0.029622182,-0.110085644,0.076284245,0.017925357
1678956296,124,1678956296,58889000,-0.000280873,-0.001126284,-0.000438134,-0.397303045,-0.009699791,0.016811376,0.917482138,-0.002314333,-0.003242979,0.02787927,-0.121070333,-0.011094067,-0.079779051
1678956296,125,1678956296,58889000,-0.000280873,-0.001126284,-0.000438134,-0.397303045,-0.009699791,0.016811376,0.917482138,-0.002314333,-0.003242979,0.02787927,-0.121070333,-0.011094067,-0.079779051
1678956296,126,1678956296,58889000,-0.000280873,-0.001126284,-0.000438134,-0.397303045,-0.009699791,0.016811376,0.917482138,-0.002314333,-0.003242979,0.02787927,-0.121070333,-0.011094067,-0.079779051
1678956296,127,1678956296,69119000,-0.000298138,-0.001269467,-0.000151802,-0.397373468,-0.010132554,0.016390195,0.91745466,-0.001487793,-0.023839369,0.030890888,0.035095118,-0.063783541,-0.001867813
1678956296,128,1678956296,75423000,-0.000310965,-0.001218661,-0.000137094,-0.39740473,-0.010063234,0.016431415,0.91744107,-0.002098119,-0.005780573,0.01291227,-0.059636671,0.108843476,0.017926197
1678956296,129,1678956296,75423000,-0.000310965,-0.001218661,-0.000137094,-0.39740473,-0.010063234,0.016431415,0.91744107,-0.002098119,-0.005780573,0.01291227,-0.059636671,0.108843476,0.017926197
1678956296,130,1678956296,75423000,-0.000310965,-0.001218661,-0.000137094,-0.39740473,-0.010063234,0.016431415,0.91744107,-0.002098119,-0.005780573,0.01291227,-0.059636671,0.108843476,0.017926197
1678956296,131,1678956296,82316000,-0.000322509,-0.001246554,-8.94E-05,-0.397415698,-0.009839618,0.016656395,0.917434752,-0.002121442,-0.004587366,0.005760665,0.124388471,0.083529226,0.081883378
1678956296,132,1678956296,82316000,-0.000322509,-0.001246554,-8.94E-05,-0.397415698,-0.009839618,0.016656395,0.917434752,-0.002121442,-0.004587366,0.005760665,0.124388471,0.083529226,0.081883378
1678956296,133,1678956296,82316000,-0.000322509,-0.001246554,-8.94E-05,-0.397415698,-0.009839618,0.016656395,0.917434752,-0.002121442,-0.004587366,0.005760665,0.124388471,0.083529226,0.081883378
1678956296,134,1678956296,82316000,-0.000322509,-0.001246554,-8.94E-05,-0.397415698,-0.009839618,0.016656395,0.917434752,-0.002121442,-0.004587366,0.005760665,0.124388471,0.083529226,0.081883378
1678956296,135,1678956296,99829000,-0.00037517,-0.001380017,-0.000598828,-0.397149056,-0.009915651,0.01629087,0.917555988,-0.00852506,-0.007132044,0.018187162,-0.04532316,-0.02780081,0.024998544
1678956296,136,1678956296,99829000,-0.00037517,-0.001380017,-0.000598828,-0.397149056,-0.009915651,0.01629087,0.917555988,-0.00852506,-0.007132044,0.018187162,-0.04532316,-0.02780081,0.024998544
1678956296,137,1678956296,99829000,-0.00037517,-0.001380017,-0.000598828,-0.397149056,-0.009915651,0.01629087,0.917555988,-0.00852506,-0.007132044,0.018187162,-0.04532316,-0.02780081,0.024998544
1678956296,138,1678956296,107404000,-0.000384081,-0.00140451,-0.000532124,-0.397368968,-0.009881438,0.016376948,0.917459607,-0.004503235,-0.007577185,0.015480939,-0.172807142,0.066270627,0.003937515
1678956296,139,1678956296,107404000,-0.000384081,-0.00140451,-0.000532124,-0.397368968,-0.009881438,0.016376948,0.917459607,-0.004503235,-0.007577185,0.015480939,-0.172807142,0.066270627,0.003937515
1678956296,140,1678956296,107404000,-0.000384081,-0.00140451,-0.000532124,-0.397368968,-0.009881438,0.016376948,0.917459607,-0.004503235,-0.007577185,0.015480939,-0.172807142,0.066270627,0.003937515
1678956296,141,1678956296,114877000,-0.000304767,-0.001579505,4.40E-05,-0.397599578,-0.009720872,0.016631423,0.917356789,0.000273093,-0.013647003,0.028061572,0.143283859,-0.050857462,0.016406894
1678956296,142,1678956296,114877000,-0.000304767,-0.001579505,4.40E-05,-0.397599578,-0.009720872,0.016631423,0.917356789,0.000273093,-0.013647003,0.028061572,0.143283859,-0.050857462,0.016406894
1678956296,143,1678956296,114877000,-0.000304767,-0.001579505,4.40E-05,-0.397599578,-0.009720872,0.016631423,0.917356789,0.000273093,-0.013647003,0.028061572,0.143283859,-0.050857462,0.016406894
1678956296,144,1678956296,114877000,-0.000304767,-0.001579505,4.40E-05,-0.397599578,-0.009720872,0.016631423,0.917356789,0.000273093,-0.013647003,0.028061572,0.143283859,-0.050857462,0.016406894
1678956296,145,1678956296,114877000,-0.000304767,-0.001579505,4.40E-05,-0.397599578,-0.009720872,0.016631423,0.917356789,0.000273093,-0.013647003,0.028061572,0.143283859,-0.050857462,0.016406894
1678956296,146,1678956296,114877000,-0.000304767,-0.001579505,4.40E-05,-0.397599578,-0.009720872,0.016631423,0.917356789,0.000273093,-0.013647003,0.028061572,0.143283859,-0.050857462,0.016406894
1678956296,147,1678956296,114877000,-0.000304767,-0.001579505,4.40E-05,-0.397599578,-0.009720872,0.016631423,0.917356789,0.000273093,-0.013647003,0.028061572,0.143283859,-0.050857462,0.016406894
1678956296,148,1678956296,114877000,-0.000304767,-0.001579505,4.40E-05,-0.397599578,-0.009720872,0.016631423,0.917356789,0.000273093,-0.013647003,0.028061572,0.143283859,-0.050857462,0.016406894
1678956296,149,1678956296,133709000,-0.00035312,-0.001523656,0.000427929,-0.397747904,-0.009835232,0.016648965,0.917290986,-0.002194715,0.002237147,0.026778819,-0.112101838,-0.051474072,-0.000722171
1678956296,150,1678956296,133709000,-0.00035312,-0.001523656,0.000427929,-0.397747904,-0.009835232,0.016648965,0.917290986,-0.002194715,0.002237147,0.026778819,-0.112101838,-0.051474072,-0.000722171
1678956296,151,1678956296,141535000,-0.000364549,-0.00150178,0.000568239,-0.39787066,-0.009895561,0.016532479,0.917239189,-0.002416112,0.00386385,0.030080054,-0.016510552,-0.027248042,-0.049259249
1678956296,152,1678956296,141535000,-0.000364549,-0.00150178,0.000568239,-0.39787066,-0.009895561,0.016532479,0.917239189,-0.002416112,0.00386385,0.030080054,-0.016510552,-0.027248042,-0.049259249
1678956296,153,1678956296,147601000,-0.000181621,-0.000770168,-0.000493245,-0.397601813,-0.009848909,0.016342064,0.91735965,-0.002113093,0.013389378,0.010540633,0.05278784,0.031935032,0.034746587
1678956296,154,1678956296,147601000,-0.000181621,-0.000770168,-0.000493245,-0.397601813,-0.009848909,0.016342064,0.91735965,-0.002113093,0.013389378,0.010540633,0.05278784,0.031935032,0.034746587
1678956296,155,1678956296,147601000,-0.000181621,-0.000770168,-0.000493245,-0.397601813,-0.009848909,0.016342064,0.91735965,-0.002113093,0.013389378,0.010540633,0.05278784,0.031935032,0.034746587
1678956296,156,1678956296,155446000,-0.000194681,-0.000660662,-0.00043301,-0.397656977,-0.00979166,0.016461581,0.917334259,-0.002415213,0.017134024,0.010830025,-0.068666182,0.05419106,0.005701619
1678956296,157,1678956296,155446000,-0.000194681,-0.000660662,-0.00043301,-0.397656977,-0.00979166,0.016461581,0.917334259,-0.002415213,0.017134024,0.010830025,-0.068666182,0.05419106,0.005701619
1678956296,158,1678956296,155446000,-0.000194681,-0.000660662,-0.00043301,-0.397656977,-0.00979166,0.016461581,0.917334259,-0.002415213,0.017134024,0.010830025,-0.068666182,0.05419106,0.005701619
1678956296,159,1678956296,168135000,-0.000216298,-0.000361486,-0.000267222,-0.397994876,-0.009937815,0.016210485,0.917190552,-0.000695008,0.022961479,0.0079027,-0.050384451,-0.046124887,0.022501891
1678956296,160,1678956296,168135000,-0.000216298,-0.000361486,-0.000267222,-0.397994876,-0.009937815,0.016210485,0.917190552,-0.000695008,0.022961479,0.0079027,-0.050384451,-0.046124887,0.022501891
1678956296,161,1678956296,168135000,-0.000216298,-0.000361486,-0.000267222,-0.397994876,-0.009937815,0.016210485,0.917190552,-0.000695008,0.022961479,0.0079027,-0.050384451,-0.046124887,0.022501891
1678956296,162,1678956296,176764000,-0.000218948,-0.00022604,-0.00022769,-0.398159146,-0.009915983,0.016279722,0.917118311,-0.000147558,0.025662756,0.006721119,0.019548781,0.08875192,0.011556456
1678956296,163,1678956296,176764000,-0.000218948,-0.00022604,-0.00022769,-0.398159146,-0.009915983,0.016279722,0.917118311,-0.000147558,0.025662756,0.006721119,0.019548781,0.08875192,0.011556456
1678956296,164,1678956296,176764000,-0.000218948,-0.00022604,-0.00022769,-0.398159146,-0.009915983,0.016279722,0.917118311,-0.000147558,0.025662756,0.006721119,0.019548781,0.08875192,0.011556456
1678956296,165,1678956296,176764000,-0.000218948,-0.00022604,-0.00022769,-0.398159146,-0.009915983,0.016279722,0.917118311,-0.000147558,0.025662756,0.006721119,0.019548781,0.08875192,0.011556456
1678956296,166,1678956296,185244000,-0.000219773,-7.66E-05,-0.000133957,-0.397934496,-0.009689376,0.016396465,0.917216182,0.000391185,0.028462,0.008369857,0.090239353,0.06947273,0.012407532
1678956296,167,1678956296,185244000,-0.000219773,-7.66E-05,-0.000133957,-0.397934496,-0.009689376,0.016396465,0.917216182,0.000391185,0.028462,0.008369857,0.090239353,0.06947273,0.012407532
1678956296,168,1678956296,190823000,-0.000161001,-0.000932512,-0.001361086,-0.397888988,-0.0097448,0.016302899,0.917236984,-0.001652044,0.011031493,-0.005376525,-0.130147129,-0.050529189,-0.054011866
1678956296,169,1678956296,190823000,-0.000161001,-0.000932512,-0.001361086,-0.397888988,-0.0097448,0.016302899,0.917236984,-0.001652044,0.011031493,-0.005376525,-0.130147129,-0.050529189,-0.054011866
1678956296,170,1678956296,190823000,-0.000161001,-0.000932512,-0.001361086,-0.397888988,-0.0097448,0.016302899,0.917236984,-0.001652044,0.011031493,-0.005376525,-0.130147129,-0.050529189,-0.054011866
1678956296,171,1678956296,190823000,-0.000161001,-0.000932512,-0.001361086,-0.397888988,-0.0097448,0.016302899,0.917236984,-0.001652044,0.011031493,-0.005376525,-0.130147129,-0.050529189,-0.054011866
1678956296,172,1678956296,190823000,-0.000161001,-0.000932512,-0.001361086,-0.397888988,-0.0097448,0.016302899,0.917236984,-0.001652044,0.011031493,-0.005376525,-0.130147129,-0.050529189,-0.054011866
1678956296,173,1678956296,201793000,-0.000112743,-0.000926251,-0.001590742,-0.39846158,-0.009857669,0.016049292,0.916991591,0.004394986,-0.002374104,-0.019615017,-0.038782701,0.047164731,0.003587482
1678956296,174,1678956296,201793000,-0.000112743,-0.000926251,-0.001590742,-0.39846158,-0.009857669,0.016049292,0.916991591,0.004394986,-0.002374104,-0.019615017,-0.038782701,0.047164731,0.003587482
1678956296,175,1678956296,201793000,-0.000112743,-0.000926251,-0.001590742,-0.39846158,-0.009857669,0.016049292,0.916991591,0.004394986,-0.002374104,-0.019615017,-0.038782701,0.047164731,0.003587482
1678956296,176,1678956296,210440000,-8.76E-05,-0.000941176,-0.001691699,-0.39839828,-0.009708297,0.016095808,0.917019904,0.00574277,-0.004899353,-0.022621758,-0.006187091,0.058695294,-0.010468226
1678956296,177,1678956296,210440000,-8.76E-05,-0.000941176,-0.001691699,-0.39839828,-0.009708297,0.016095808,0.917019904,0.00574277,-0.004899353,-0.022621758,-0.006187091,0.058695294,-0.010468226
1678956296,178,1678956296,214716000,-7.61E-05,-0.000869587,-0.001779634,-0.398480982,-0.00962454,0.016088858,0.916984916,0.004151047,0.006673639,-0.020944189,0.001526528,-0.008902345,-0.026754474
1678956296,179,1678956296,214716000,-7.61E-05,-0.000869587,-0.001779634,-0.398480982,-0.00962454,0.016088858,0.916984916,0.004151047,0.006673639,-0.020944189,0.001526528,-0.008902345,-0.026754474
1678956296,180,1678956296,214716000,-7.61E-05,-0.000869587,-0.001779634,-0.398480982,-0.00962454,0.016088858,0.916984916,0.004151047,0.006673639,-0.020944189,0.001526528,-0.008902345,-0.026754474
1678956296,181,1678956296,214716000,-7.61E-05,-0.000869587,-0.001779634,-0.398480982,-0.00962454,0.016088858,0.916984916,0.004151047,0.006673639,-0.020944189,0.001526528,-0.008902345,-0.026754474
1678956296,182,1678956296,214716000,-7.61E-05,-0.000869587,-0.001779634,-0.398480982,-0.00962454,0.016088858,0.916984916,0.004151047,0.006673639,-0.020944189,0.001526528,-0.008902345,-0.026754474
1678956296,183,1678956296,228150000,0.000278102,-0.001572954,-0.001738726,-0.398342729,-0.009537502,0.016183153,0.917044342,0.007855371,-0.003209672,-0.023301389,0.065701351,-0.048944518,-0.020675074
1678956296,184,1678956296,231974000,0.00030466,-0.001580853,-0.001763779,-0.398890078,-0.00964666,0.016112279,0.9168064,0.002184192,0.002322986,-0.002940029,-0.2212594,-0.001902025,0.001032448
1678956296,185,1678956296,236323000,0.000310664,-0.001554412,-0.001763734,-0.399205655,-0.009604431,0.016081158,0.916670084,0.000358572,0.005763318,0.00252076,-0.067644149,0.019821122,-0.054494716
1678956296,186,1678956296,242492000,0.000332706,-0.001426188,-0.001769169,-0.399378091,-0.009545582,0.015765214,0.916601062,0.00210276,0.015322871,-0.000121037,0.037851129,-0.059701987,-0.038211178
1678956296,187,1678956296,242492000,0.000332706,-0.001426188,-0.001769169,-0.399378091,-0.009545582,0.015765214,0.916601062,0.00210276,0.015322871,-0.000121037,0.037851129,-0.059701987,-0.038211178
1678956296,188,1678956296,249046000,0.00034447,-0.001338111,-0.001772557,-0.399282724,-0.009611108,0.015661402,0.916643739,0.002463368,0.019308494,0.000293415,-0.029010436,0.003431586,-0.015410009
1678956296,189,1678956296,249046000,0.00034447,-0.001338111,-0.001772557,-0.399282724,-0.009611108,0.015661402,0.916643739,0.002463368,0.019308494,0.000293415,-0.029010436,0.003431586,-0.015410009
1678956296,190,1678956296,257580000,6.16E-05,-0.000856646,-0.000870827,-0.399618447,-0.009518284,0.015666617,0.916498303,0.000572634,0.018725503,0.002228456,-0.195750237,0.055742227,-0.010747793
1678956296,191,1678956296,257580000,6.16E-05,-0.000856646,-0.000870827,-0.399618447,-0.009518284,0.015666617,0.916498303,0.000572634,0.018725503,0.002228456,-0.195750237,0.055742227,-0.010747793
1678956296,192,1678956296,266857000,9.35E-05,-0.000893915,-0.000811983,-0.400369018,-0.009496052,0.01558745,0.916172266,0.003528717,-0.000199814,0.003423299,-0.037682399,-0.058288462,-0.044556841
1678956296,193,1678956296,268751000,0.000113531,-0.000894533,-0.000808326,-0.400384814,-0.009536204,0.01540495,0.916168034,0.004460568,-0.003464661,0.001765117,-0.033592083,-0.015795268,-0.063925013
1678956296,194,1678956296,268751000,0.000113531,-0.000894533,-0.000808326,-0.400384814,-0.009536204,0.01540495,0.916168034,0.004460568,-0.003464661,0.001765117,-0.033592083,-0.015795268,-0.063925013
1678956296,195,1678956296,268751000,0.000113531,-0.000894533,-0.000808326,-0.400384814,-0.009536204,0.01540495,0.916168034,0.004460568,-0.003464661,0.001765117,-0.033592083,-0.015795268,-0.063925013
1678956296,196,1678956296,268751000,0.000113531,-0.000894533,-0.000808326,-0.400384814,-0.009536204,0.01540495,0.916168034,0.004460568,-0.003464661,0.001765117,-0.033592083,-0.015795268,-0.063925013
1678956296,197,1678956296,276931000,0.000138439,-0.000921108,-0.000809246,-0.40054974,-0.009446259,0.01529124,0.916098654,0.005413306,-0.007292639,0.000345108,-0.07412228,0.033620298,-0.047825199
1678956296,198,1678956296,276931000,0.000138439,-0.000921108,-0.000809246,-0.40054974,-0.009446259,0.01529124,0.916098654,0.005413306,-0.007292639,0.000345108,-0.07412228,0.033620298,-0.047825199
1678956296,199,1678956296,282997000,-0.000257827,-0.001207592,-0.001589045,-0.400909245,-0.009476043,0.015212337,0.91594243,0.000849123,0.007999894,-0.007816795,-0.177765146,-0.0418294,0.010415523
1678956296,200,1678956296,282997000,-0.000257827,-0.001207592,-0.001589045,-0.400909245,-0.009476043,0.015212337,0.91594243,0.000849123,0.007999894,-0.007816795,-0.177765146,-0.0418294,0.010415523
1678956296,201,1678956296,282997000,-0.000257827,-0.001207592,-0.001589045,-0.400909245,-0.009476043,0.015212337,0.91594243,0.000849123,0.007999894,-0.007816795,-0.177765146,-0.0418294,0.010415523
1678956296,202,1678956296,282997000,-0.000257827,-0.001207592,-0.001589045,-0.400909245,-0.009476043,0.015212337,0.91594243,0.000849123,0.007999894,-0.007816795,-0.177765146,-0.0418294,0.010415523
1678956296,203,1678956296,298080000,-0.000248336,-0.00119238,-0.001652072,-0.40128696,-0.009537367,0.015148761,0.915777504,0.0017854,0.008044532,-0.009202185,-0.093587227,0.000664167,-0.066628382
1678956296,204,1678956296,299103000,-0.000278328,-0.001430974,-0.001892528,-0.402021676,-0.009389278,0.014768758,0.915462971,-0.001555123,-0.015146692,-0.020437125,-0.129497632,-0.038757652,-0.044343509
1678956296,205,1678956296,299103000,-0.000278328,-0.001430974,-0.001892528,-0.402021676,-0.009389278,0.014768758,0.915462971,-0.001555123,-0.015146692,-0.020437125,-0.129497632,-0.038757652,-0.044343509
1678956296,206,1678956296,309560000,-0.00028722,-0.001521796,-0.002003233,-0.402211308,-0.009416224,0.014678026,0.915380836,-0.001894079,-0.01966159,-0.023343343,-0.16238147,-0.008949844,-0.012018656
1678956296,207,1678956296,312652000,-0.000389383,-0.001375978,-0.001390951,-0.402782321,-0.009114548,0.014559492,0.915134609,-0.008060301,0.000523489,0.001726789,-0.14978525,-0.017165672,-0.067106061
1678956296,208,1678956296,312652000,-0.000389383,-0.001375978,-0.001390951,-0.402782321,-0.009114548,0.014559492,0.915134609,-0.008060301,0.000523489,0.001726789,-0.14978525,-0.017165672,-0.067106061
1678956296,209,1678956296,312652000,-0.000389383,-0.001375978,-0.001390951,-0.402782321,-0.009114548,0.014559492,0.915134609,-0.008060301,0.000523489,0.001726789,-0.14978525,-0.017165672,-0.067106061
1678956296,210,1678956296,312652000,-0.000389383,-0.001375978,-0.001390951,-0.402782321,-0.009114548,0.014559492,0.915134609,-0.008060301,0.000523489,0.001726789,-0.14978525,-0.017165672,-0.067106061
1678956296,211,1678956296,312652000,-0.000389383,-0.001375978,-0.001390951,-0.402782321,-0.009114548,0.014559492,0.915134609,-0.008060301,0.000523489,0.001726789,-0.14978525,-0.017165672,-0.067106061
1678956296,212,1678956296,312652000,-0.000389383,-0.001375978,-0.001390951,-0.402782321,-0.009114548,0.014559492,0.915134609,-0.008060301,0.000523489,0.001726789,-0.14978525,-0.017165672,-0.067106061
1678956296,213,1678956296,326781000,-0.000451779,-0.001524783,-0.001407997,-0.40343821,-0.009192573,0.014169589,0.914851069,-0.007269386,-0.013864926,-0.001954828,-0.155440733,-0.010786578,-0.060557801
1678956296,214,1678956296,326781000,-0.000451779,-0.001524783,-0.001407997,-0.40343821,-0.009192573,0.014169589,0.914851069,-0.007269386,-0.013864926,-0.001954828,-0.155440733,-0.010786578,-0.060557801
1678956296,215,1678956296,336519000,-0.000527156,-0.001686192,-0.001439827,-0.404272228,-0.009013052,0.01400949,0.914487004,-0.007687917,-0.020493209,-0.004338881,-0.113148645,-0.008765645,-0.005144499
1678956296,216,1678956296,336519000,-0.000527156,-0.001686192,-0.001439827,-0.404272228,-0.009013052,0.01400949,0.914487004,-0.007687917,-0.020493209,-0.004338881,-0.113148645,-0.008765645,-0.005144499
1678956296,217,1678956296,342838000,-0.000598728,-0.001583377,-0.00138154,-0.404792398,-0.008920426,0.013804193,0.914260924,-0.007408941,0.006638567,0.003870577,-0.220041558,-0.001933057,-0.110438019
1678956296,218,1678956296,342838000,-0.000598728,-0.001583377,-0.00138154,-0.404792398,-0.008920426,0.013804193,0.914260924,-0.007408941,0.006638567,0.003870577,-0.220041558,-0.001933057,-0.110438019
1678956296,219,1678956296,350128000,-3.20E-05,-0.001655345,-0.002433804,-0.405444652,-0.008842998,0.013504989,0.913977087,7.24E-05,0.010688975,-0.011273189,-0.124902733,-0.062091179,-0.07876388
1678956296,220,1678956296,350128000,-3.20E-05,-0.001655345,-0.002433804,-0.405444652,-0.008842998,0.013504989,0.913977087,7.24E-05,0.010688975,-0.011273189,-0.124902733,-0.062091179,-0.07876388
1678956296,221,1678956296,350128000,-3.20E-05,-0.001655345,-0.002433804,-0.405444652,-0.008842998,0.013504989,0.913977087,7.24E-05,0.010688975,-0.011273189,-0.124902733,-0.062091179,-0.07876388
1678956296,222,1678956296,350128000,-3.20E-05,-0.001655345,-0.002433804,-0.405444652,-0.008842998,0.013504989,0.913977087,7.24E-05,0.010688975,-0.011273189,-0.124902733,-0.062091179,-0.07876388
1678956296,223,1678956296,350128000,-3.20E-05,-0.001655345,-0.002433804,-0.405444652,-0.008842998,0.013504989,0.913977087,7.24E-05,0.010688975,-0.011273189,-0.124902733,-0.062091179,-0.07876388
1678956296,224,1678956296,350128000,-3.20E-05,-0.001655345,-0.002433804,-0.405444652,-0.008842998,0.013504989,0.913977087,7.24E-05,0.010688975,-0.011273189,-0.124902733,-0.062091179,-0.07876388
1678956296,225,1678956296,350128000,-3.20E-05,-0.001655345,-0.002433804,-0.405444652,-0.008842998,0.013504989,0.913977087,7.24E-05,0.010688975,-0.011273189,-0.124902733,-0.062091179,-0.07876388
1678956296,226,1678956296,367945000,0.000164623,-0.001576073,-0.002568577,-0.406868279,-0.008881098,0.012920643,0.913352251,0.009972609,0.008569014,-0.005554806,-0.12604636,-0.042109001,-0.006842104
1678956296,227,1678956296,367945000,0.000164623,-0.001576073,-0.002568577,-0.406868279,-0.008881098,0.012920643,0.913352251,0.009972609,0.008569014,-0.005554806,-0.12604636,-0.042109001,-0.006842104
1678956296,228,1678956296,376458000,0.000216075,-0.001537245,-0.00259448,-0.407237023,-0.008913885,0.012816113,0.913189113,0.01052726,0.009783615,-0.004596924,-0.249186069,-0.020006649,-0.080583662
1678956296,229,1678956296,376458000,0.000216075,-0.001537245,-0.00259448,-0.407237023,-0.008913885,0.012816113,0.913189113,0.01052726,0.009783615,-0.004596924,-0.249186069,-0.020006649,-0.080583662
1678956296,230,1678956296,382913000,0.000640198,-0.001751781,-0.003173901,-0.408116966,-0.008810564,0.012247862,0.912804902,0.015099498,-0.001392833,-0.02293469,-0.079761215,-0.075715102,-0.082539149
1678956296,231,1678956296,382913000,0.000640198,-0.001751781,-0.003173901,-0.408116966,-0.008810564,0.012247862,0.912804902,0.015099498,-0.001392833,-0.02293469,-0.079761215,-0.075715102,-0.082539149
1678956296,232,1678956296,382913000,0.000640198,-0.001751781,-0.003173901,-0.408116966,-0.008810564,0.012247862,0.912804902,0.015099498,-0.001392833,-0.02293469,-0.079761215,-0.075715102,-0.082539149
1678956296,233,1678956296,382913000,0.000640198,-0.001751781,-0.003173901,-0.408116966,-0.008810564,0.012247862,0.912804902,0.015099498,-0.001392833,-0.02293469,-0.079761215,-0.075715102,-0.082539149
1678956296,234,1678956296,382913000,0.000640198,-0.001751781,-0.003173901,-0.408116966,-0.008810564,0.012247862,0.912804902,0.015099498,-0.001392833,-0.02293469,-0.079761215,-0.075715102,-0.082539149
1678956296,235,1678956296,400800000,0.000703078,-0.001846675,-0.003737464,-0.409151465,-0.008693691,0.011840231,0.91234827,0.004412574,-0.005057924,-0.041083131,-0.096456833,-0.017400892,-0.050560154
1678956296,236,1678956296,400800000,0.000703078,-0.001846675,-0.003737464,-0.409151465,-0.008693691,0.011840231,0.91234827,0.004412574,-0.005057924,-0.041083131,-0.096456833,-0.017400892,-0.050560154
1678956296,237,1678956296,400800000,0.000703078,-0.001846675,-0.003737464,-0.409151465,-0.008693691,0.011840231,0.91234827,0.004412574,-0.005057924,-0.041083131,-0.096456833,-0.017400892,-0.050560154
1678956296,238,1678956296,400800000,0.000703078,-0.001846675,-0.003737464,-0.409151465,-0.008693691,0.011840231,0.91234827,0.004412574,-0.005057924,-0.041083131,-0.096456833,-0.017400892,-0.050560154
1678956296,239,1678956296,414506000,0.000826534,-0.001623446,-0.003946571,-0.409491688,-0.008890796,0.011430174,0.912198961,0.011313251,0.023889443,-0.022966046,-0.127106071,-0.073476076,-0.082227618
1678956296,240,1678956296,415938000,0.000383271,-0.001128139,-0.003629039,-0.409774929,-0.009093948,0.011092938,0.91207391,0.008691582,0.041342825,-0.025726525,-0.207238168,-0.054970771,-0.109086037
1678956296,241,1678956296,415938000,0.000383271,-0.001128139,-0.003629039,-0.409774929,-0.009093948,0.011092938,0.91207391,0.008691582,0.041342825,-0.025726525,-0.207238168,-0.054970771,-0.109086037
1678956296,242,1678956296,415938000,0.000383271,-0.001128139,-0.003629039,-0.409774929,-0.009093948,0.011092938,0.91207391,0.008691582,0.041342825,-0.025726525,-0.207238168,-0.054970771,-0.109086037
1678956296,243,1678956296,415938000,0.000383271,-0.001128139,-0.003629039,-0.409774929,-0.009093948,0.011092938,0.91207391,0.008691582,0.041342825,-0.025726525,-0.207238168,-0.054970771,-0.109086037
1678956296,244,1678956296,415938000,0.000383271,-0.001128139,-0.003629039,-0.409774929,-0.009093948,0.011092938,0.91207391,0.008691582,0.041342825,-0.025726525,-0.207238168,-0.054970771,-0.109086037
1678956296,245,1678956296,432774000,0.000732307,-0.000740983,-0.004112686,-0.410808027,-0.009410719,0.010183419,0.911616445,0.01858606,0.026165256,-0.03034386,-0.028422145,-0.051075585,-0.061348908
1678956296,246,1678956296,432774000,0.000732307,-0.000740983,-0.004112686,-0.410808027,-0.009410719,0.010183419,0.911616445,0.01858606,0.026165256,-0.03034386,-0.028422145,-0.051075585,-0.061348908
1678956296,247,1678956296,440882000,0.000827617,-0.000605427,-0.004273991,-0.410831839,-0.009506428,0.009971421,0.911607027,0.019408336,0.026142826,-0.033720251,-0.08072114,-0.088827401,-0.059716083
1678956296,248,1678956296,440882000,0.000827617,-0.000605427,-0.004273991,-0.410831839,-0.009506428,0.009971421,0.911607027,0.019408336,0.026142826,-0.033720251,-0.08072114,-0.088827401,-0.059716083
1678956296,249,1678956296,446316000,0.000926674,-0.000473303,-0.004452872,-0.411139905,-0.009646234,0.009709137,0.911469519,0.020237556,0.025724068,-0.037365131,-0.105076194,-0.092048585,-0.10036841
1678956296,250,1678956296,446316000,0.000926674,-0.000473303,-0.004452872,-0.411139905,-0.009646234,0.009709137,0.911469519,0.020237556,0.025724068,-0.037365131,-0.105076194,-0.092048585,-0.10036841
1678956296,251,1678956296,446316000,0.000926674,-0.000473303,-0.004452872,-0.411139905,-0.009646234,0.009709137,0.911469519,0.020237556,0.025724068,-0.037365131,-0.105076194,-0.092048585,-0.10036841
1678956296,252,1678956296,457438000,0.001178698,-0.000596912,-0.00370174,-0.411330819,-0.00974991,0.009047786,0.911389112,0.017468655,0.046409667,-0.014009417,0.000735312,-0.100746207,-0.077049747
1678956296,253,1678956296,457438000,0.001178698,-0.000596912,-0.00370174,-0.411330819,-0.00974991,0.009047786,0.911389112,0.017468655,0.046409667,-0.014009417,0.000735312,-0.100746207,-0.077049747
1678956296,254,1678956296,457438000,0.001178698,-0.000596912,-0.00370174,-0.411330819,-0.00974991,0.009047786,0.911389112,0.017468655,0.046409667,-0.014009417,0.000735312,-0.100746207,-0.077049747
1678956296,255,1678956296,465980000,0.001369298,-0.000159869,-0.003860208,-0.411719888,-0.010019823,0.008606482,0.91121465,0.019306803,0.047499306,-0.014223984,-0.029151041,-0.064337336,-0.075647525
1678956296,256,1678956296,472100000,0.001467039,8.80E-05,-0.003927178,-0.411632329,-0.010110499,0.008328854,0.911255896,0.019964222,0.049488325,-0.014168074,0.057889327,-0.106010437,-0.086492956
1678956296,257,1678956296,472100000,0.001467039,8.80E-05,-0.003927178,-0.411632329,-0.010110499,0.008328854,0.911255896,0.019964222,0.049488325,-0.014168074,0.057889327,-0.106010437,-0.086492956
1678956296,258,1678956296,472100000,0.001467039,8.80E-05,-0.003927178,-0.411632329,-0.010110499,0.008328854,0.911255896,0.019964222,0.049488325,-0.014168074,0.057889327,-0.106010437,-0.086492956
1678956296,259,1678956296,479466000,0.0016508,0.000548364,-0.004084922,-0.41186446,-0.010565155,0.007747191,0.911150992,0.018005462,0.046298668,-0.016351786,-0.070660986,-0.09537334,-0.092242345
1678956296,260,1678956296,479466000,0.0016508,0.000548364,-0.004084922,-0.41186446,-0.010565155,0.007747191,0.911150992,0.018005462,0.046298668,-0.016351786,-0.070660986,-0.09537334,-0.092242345
1678956296,261,1678956296,485602000,0.001472364,3.26E-05,-0.003866573,-0.411999166,-0.010674801,0.007475017,0.911091089,0.013935231,0.037915722,-0.004688775,0.085785933,-0.077636391,-0.040503405
1678956296,262,1678956296,485602000,0.001472364,3.26E-05,-0.003866573,-0.411999166,-0.010674801,0.007475017,0.911091089,0.013935231,0.037915722,-0.004688775,0.085785933,-0.077636391,-0.040503405
1678956296,263,1678956296,485602000,0.001472364,3.26E-05,-0.003866573,-0.411999166,-0.010674801,0.007475017,0.911091089,0.013935231,0.037915722,-0.004688775,0.085785933,-0.077636391,-0.040503405
1678956296,264,1678956296,485602000,0.001472364,3.26E-05,-0.003866573,-0.411999166,-0.010674801,0.007475017,0.911091089,0.013935231,0.037915722,-0.004688775,0.085785933,-0.077636391,-0.040503405
1678956296,265,1678956296,485602000,0.001472364,3.26E-05,-0.003866573,-0.411999166,-0.010674801,0.007475017,0.911091089,0.013935231,0.037915722,-0.004688775,0.085785933,-0.077636391,-0.040503405
1678956297,266,1678956296,500232000,0.0016514,0.000561877,-0.003966478,-0.411964446,-0.01112159,0.006974765,0.911105394,0.010519255,0.032701306,-0.005982357,0.058414757,-0.087205485,-0.086736202
1678956297,267,1678956296,500232000,0.0016514,0.000561877,-0.003966478,-0.411964446,-0.01112159,0.006974765,0.911105394,0.010519255,0.032701306,-0.005982357,0.058414757,-0.087205485,-0.086736202
1678956297,268,1678956296,506884000,0.001700886,0.000712243,-0.003992323,-0.411648989,-0.011313979,0.006691738,0.91124773,0.009449488,0.03019855,-0.005582784,0.099263102,-0.134464607,-0.038581137
1678956297,269,1678956296,513552000,0.001797376,0.000945665,-0.004070203,-0.411824465,-0.011766786,0.006330191,0.911165297,0.009015764,0.020141546,-0.008262312,0.013164008,-0.062290195,-0.042901613
1678956297,270,1678956296,513552000,0.001797376,0.000945665,-0.004070203,-0.411824465,-0.011766786,0.006330191,0.911165297,0.009015764,0.020141546,-0.008262312,0.013164008,-0.062290195,-0.042901613
1678956297,271,1678956296,513552000,0.001797376,0.000945665,-0.004070203,-0.411824465,-0.011766786,0.006330191,0.911165297,0.009015764,0.020141546,-0.008262312,0.013164008,-0.062290195,-0.042901613
1678956297,272,1678956296,513552000,0.001797376,0.000945665,-0.004070203,-0.411824465,-0.011766786,0.006330191,0.911165297,0.009015764,0.020141546,-0.008262312,0.013164008,-0.062290195,-0.042901613
1678956297,273,1678956296,513552000,0.001797376,0.000945665,-0.004070203,-0.411824465,-0.011766786,0.006330191,0.911165297,0.009015764,0.020141546,-0.008262312,0.013164008,-0.062290195,-0.042901613
1678956297,274,1678956296,532424000,0.001551025,-5.54E-05,-0.004451746,-0.411508858,-0.012448112,0.006102275,0.911300302,0.003091107,0.000502557,-0.006746666,-0.002959136,-0.087007806,-0.010825695
1678956297,275,1678956296,537438000,0.001572404,-8.75E-05,-0.004526781,-0.411124587,-0.012929926,0.005845408,0.911468744,0.001114238,-0.006510871,-0.007695262,-0.059623625,-0.1217224,0.000148946
1678956297,276,1678956296,537438000,0.001572404,-8.75E-05,-0.004526781,-0.411124587,-0.012929926,0.005845408,0.911468744,0.001114238,-0.006510871,-0.007695262,-0.059623625,-0.1217224,0.000148946
1678956297,277,1678956296,544224000,0.001586066,-6.71E-05,-0.004564176,-0.411250085,-0.013177588,0.005743779,0.911409259,0.001630664,-0.001776803,-0.007771881,0.066536129,-0.085644647,0.003607836
1678956297,278,1678956296,544224000,0.001586066,-6.71E-05,-0.004564176,-0.411250085,-0.013177588,0.005743779,0.911409259,0.001630664,-0.001776803,-0.007771881,0.066536129,-0.085644647,0.003607836
1678956297,279,1678956296,550385000,0.001346472,-0.00067249,-0.005135671,-0.411024034,-0.013323235,0.005631504,0.911509812,-0.001643179,-0.001300411,-0.007243893,0.085474648,-0.077380173,0.030619185
1678956297,280,1678956296,550385000,0.001346472,-0.00067249,-0.005135671,-0.411024034,-0.013323235,0.005631504,0.911509812,-0.001643179,-0.001300411,-0.007243893,0.085474648,-0.077380173,0.030619185
1678956297,281,1678956296,550385000,0.001346472,-0.00067249,-0.005135671,-0.411024034,-0.013323235,0.005631504,0.911509812,-0.001643179,-0.001300411,-0.007243893,0.085474648,-0.077380173,0.030619185
1678956297,282,1678956296,550385000,0.001346472,-0.00067249,-0.005135671,-0.411024034,-0.013323235,0.005631504,0.911509812,-0.001643179,-0.001300411,-0.007243893,0.085474648,-0.077380173,0.030619185
1678956297,283,1678956296,550385000,0.001346472,-0.00067249,-0.005135671,-0.411024034,-0.013323235,0.005631504,0.911509812,-0.001643179,-0.001300411,-0.007243893,0.085474648,-0.077380173,0.030619185
1678956297,284,1678956296,564466000,0.001337197,-0.000677653,-0.005169305,-0.411002725,-0.013543794,0.005642977,0.91151607,-0.00205224,-0.001023602,-0.00604587,0.021009991,-0.069723226,0.044828959
1678956297,285,1678956296,565393000,0.001318626,-0.000747096,-0.005291296,-0.41095227,-0.013963669,0.005567148,0.911532879,-0.002311486,-0.006208542,-0.010291002,0.067501776,-0.102296516,0.003078187
1678956297,286,1678956296,565393000,0.001318626,-0.000747096,-0.005291296,-0.41095227,-0.013963669,0.005567148,0.911532879,-0.002311486,-0.006208542,-0.010291002,0.067501776,-0.102296516,0.003078187
1678956297,287,1678956296,565393000,0.001318626,-0.000747096,-0.005291296,-0.41095227,-0.013963669,0.005567148,0.911532879,-0.002311486,-0.006208542,-0.010291002,0.067501776,-0.102296516,0.003078187
1678956297,288,1678956296,573573000,0.001285346,-0.000791825,-0.005397267,-0.410947919,-0.01445153,0.005272563,0.911529064,-0.003909082,-0.003865895,-0.011856916,0.035179771,-0.092218921,-0.029202349
1678956297,289,1678956296,578690000,0.00126397,-0.000807891,-0.005458026,-0.410660923,-0.014596195,0.00515882,0.911656737,-0.004592588,-0.003300391,-0.013030987,0.123298846,-0.060725622,0.005610682
1678956297,290,1678956296,578690000,0.00126397,-0.000807891,-0.005458026,-0.410660923,-0.014596195,0.00515882,0.911656737,-0.004592588,-0.003300391,-0.013030987,0.123298846,-0.060725622,0.005610682
1678956297,291,1678956296,578690000,0.00126397,-0.000807891,-0.005458026,-0.410660923,-0.014596195,0.00515882,0.911656737,-0.004592588,-0.003300391,-0.013030987,0.123298846,-0.060725622,0.005610682
1678956297,292,1678956296,588203000,0.001312426,-0.00111834,-0.005814745,-0.410697699,-0.014769356,0.005081502,0.911637783,-0.004578664,-0.002022086,-0.016113987,-0.103834786,-0.057166107,0.01850117
1678956297,293,1678956296,588203000,0.001312426,-0.00111834,-0.005814745,-0.410697699,-0.014769356,0.005081502,0.911637783,-0.004578664,-0.002022086,-0.016113987,-0.103834786,-0.057166107,0.01850117
1678956297,294,1678956296,588203000,0.001312426,-0.00111834,-0.005814745,-0.410697699,-0.014769356,0.005081502,0.911637783,-0.004578664,-0.002022086,-0.016113987,-0.103834786,-0.057166107,0.01850117
1678956297,295,1678956296,588203000,0.001312426,-0.00111834,-0.005814745,-0.410697699,-0.014769356,0.005081502,0.911637783,-0.004578664,-0.002022086,-0.016113987,-0.103834786,-0.057166107,0.01850117
1678956297,296,1678956296,598975000,0.001243862,-0.001296798,-0.006009283,-0.410751909,-0.015184327,0.004804624,0.91160804,-0.005081254,-0.00901757,-0.015248505,-0.084772006,-0.089873001,-0.006718019
1678956297,297,1678956296,598975000,0.001243862,-0.001296798,-0.006009283,-0.410751909,-0.015184327,0.004804624,0.91160804,-0.005081254,-0.00901757,-0.015248505,-0.084772006,-0.089873001,-0.006718019
1678956297,298,1678956296,605221000,0.001214736,-0.00132501,-0.006046572,-0.410599828,-0.015371732,0.004740549,0.911673784,-0.005521588,-0.008851938,-0.013630096,0.145889342,-0.036874957,0.003794804
1678956297,299,1678956296,605221000,0.001214736,-0.00132501,-0.006046572,-0.410599828,-0.015371732,0.004740549,0.911673784,-0.005521588,-0.008851938,-0.013630096,0.145889342,-0.036874957,0.003794804
1678956297,300,1678956296,605221000,0.001214736,-0.00132501,-0.006046572,-0.410599828,-0.015371732,0.004740549,0.911673784,-0.005521588,-0.008851938,-0.013630096,0.145889342,-0.036874957,0.003794804
1678956297,301,1678956296,612118000,0.001187738,-0.001370786,-0.00611169,-0.41045928,-0.015390057,0.004737417,0.911736786,-0.005576699,-0.011164284,-0.01523044,-0.104435809,-0.001788109,0.015254439
1678956297,302,1678956296,612118000,0.001187738,-0.001370786,-0.00611169,-0.41045928,-0.015390057,0.004737417,0.911736786,-0.005576699,-0.011164284,-0.01523044,-0.104435809,-0.001788109,0.015254439
1678956297,303,1678956296,619985000,0.001618195,-0.001191464,-0.005886263,-0.410283297,-0.015633449,0.004739101,0.911811829,-0.000801636,-0.003346732,0.002587596,0.133470505,-0.049418867,-0.003651456
1678956297,304,1678956296,619985000,0.001618195,-0.001191464,-0.005886263,-0.410283297,-0.015633449,0.004739101,0.911811829,-0.000801636,-0.003346732,0.002587596,0.133470505,-0.049418867,-0.003651456
