Time,header.seq,header.stamp.secs,header.stamp.nsecs,header.frame_id,pose.position.x,pose.position.y,pose.position.z,pose.orientation.x,pose.orientation.y,pose.orientation.z,pose.orientation.w,twist.linear.x,twist.linear.y,twist.linear.z,twist.angular.x,twist.angular.y,twist.angular.z
1678956295.6358578,1,1678956295,344665000,,-0.0003526877553667873,0.00023691625392530113,-0.0002624514454510063,-0.39797326922416687,-0.009155183099210262,0.017128141596913338,0.9171914458274841,0.013742690905928612,-0.0018459109123796225,-0.003209745977073908,-0.03658776357769966,0.0015624209772795439,0.0011293269926682115
1678956295.6364207,2,1678956295,449149000,,-0.0003415487299207598,-0.0007201794651336968,-0.0004576746723614633,-0.39775338768959045,-0.00933403242379427,0.01704682596027851,0.9172865748405457,0.0012629945995286107,0.02594975382089615,-0.004615033511072397,0.11365380138158798,-0.00032496589119546115,-0.007535601034760475
1678956295.6366127,3,1678956295,550549000,,-0.00011111312778666615,-0.00047717237612232566,-0.0007300064899027348,-0.3976347744464874,-0.00928653497248888,0.01703033596277237,0.9173386693000793,-0.0021499618887901306,0.03623514994978905,0.019137417897582054,0.019457871094346046,-0.0013361959718167782,-0.03588719293475151
1678956295.6588776,4,1678956295,651256000,,-8.477579103782773e-05,-0.0008401664672419429,-0.0011693707201629877,-0.39764752984046936,-0.0096012307330966,0.01668187417089939,0.9173363447189331,-2.5686054868856445e-05,0.0206034816801548,-0.008467967621982098,-0.005303033161908388,0.015061005018651485,-0.029907768592238426
1678956295.6639268,5,1678956295,651256000,,-8.477579103782773e-05,-0.0008401664672419429,-0.0011693707201629877,-0.39764752984046936,-0.0096012307330966,0.01668187417089939,0.9173363447189331,-2.5686054868856445e-05,0.0206034816801548,-0.008467967621982098,-0.005303033161908388,0.015061005018651485,-0.029907768592238426
1678956295.6693711,6,1678956295,666540000,,-5.452819095808081e-05,-0.0008484626887366176,-0.0012459899298846722,-0.39803558588027954,-0.009487321600317955,0.016903148964047432,0.917165219783783,0.002396967727690935,-0.0031404464971274137,-0.006239716894924641,-0.016344059258699417,-0.004781510680913925,-0.02470453828573227
1678956295.6713893,7,1678956295,666540000,,-5.452819095808081e-05,-0.0008484626887366176,-0.0012459899298846722,-0.39803558588027954,-0.009487321600317955,0.016903148964047432,0.917165219783783,0.002396967727690935,-0.0031404464971274137,-0.006239716894924641,-0.016344059258699417,-0.004781510680913925,-0.02470453828573227
1678956295.6744385,8,1678956295,666540000,,-5.452819095808081e-05,-0.0008484626887366176,-0.0012459899298846722,-0.39803558588027954,-0.009487321600317955,0.016903148964047432,0.917165219783783,0.002396967727690935,-0.0031404464971274137,-0.006239716894924641,-0.016344059258699417,-0.004781510680913925,-0.02470453828573227
1678956295.6791377,9,1678956295,674201000,,-4.146360151935369e-05,-0.0008687158115208149,-0.0012744832783937454,-0.3980678915977478,-0.009480643086135387,0.01678449846804142,0.9171534776687622,0.0028696819208562374,-0.007058179471641779,-0.006011589430272579,0.029696999117732048,-0.032506342977285385,-0.05236200988292694
1678956295.6840463,10,1678956295,680106000,,-4.523726965999231e-05,-0.0008078383398242295,-0.0012686597183346748,-0.3979512155056,-0.009537291713058949,0.016663867980241776,0.9172056913375854,0.0005713214632123709,0.004195945803076029,-0.001390573801472783,0.03182802349328995,-0.03566000610589981,-0.005453426390886307
1678956295.688669,11,1678956295,680106000,,-4.523726965999231e-05,-0.0008078383398242295,-0.0012686597183346748,-0.3979512155056,-0.009537291713058949,0.016663867980241776,0.9172056913375854,0.0005713214632123709,0.004195945803076029,-0.001390573801472783,0.03182802349328995,-0.03566000610589981,-0.005453426390886307
1678956295.69206,12,1678956295,688111000,,-0.00017809525888878852,-0.0007572655449621379,-0.0015457896515727043,-0.39853084087371826,-0.00954810157418251,0.0167225431650877,0.9169527888298035,-0.0024023016449064016,-0.0017403509700670838,-0.006081202067434788,-0.10320913791656494,0.05550316721200943,-0.042897749692201614
1678956295.6950998,13,1678956295,688111000,,-0.00017809525888878852,-0.0007572655449621379,-0.0015457896515727043,-0.39853084087371826,-0.00954810157418251,0.0167225431650877,0.9169527888298035,-0.0024023016449064016,-0.0017403509700670838,-0.006081202067434788,-0.10320913791656494,0.05550316721200943,-0.042897749692201614
1678956295.6977057,14,1678956295,688111000,,-0.00017809525888878852,-0.0007572655449621379,-0.0015457896515727043,-0.39853084087371826,-0.00954810157418251,0.0167225431650877,0.9169527888298035,-0.0024023016449064016,-0.0017403509700670838,-0.006081202067434788,-0.10320913791656494,0.05550316721200943,-0.042897749692201614
1678956295.6998982,15,1678956295,698880000,,-0.00014930425095371902,-0.0007178631494753063,-0.0017136929091066122,-0.39847660064697266,-0.00939488410949707,0.016662223264575005,0.9169790744781494,0.001401146873831749,0.0030408347956836224,-0.02151714637875557,0.1618637591600418,0.0019457286689430475,0.004015067126601934
1678956295.7025526,16,1678956295,700828000,,-0.0001366698561469093,-0.0006669192225672305,-0.0018070581136271358,-0.3979527950286865,-0.009509611874818802,0.01674584485590458,0.9172037243843079,0.002248197328299284,0.006503053940832615,-0.023922976106405258,0.23489949107170105,-0.018511589616537094,0.06365527957677841
1678956295.7085764,17,1678956295,706311000,,-0.00011055530922021717,-0.0005677729495801032,-0.0019598931539803743,-0.39812374114990234,-0.009431878104805946,0.016911450773477554,0.9171273708343506,0.0033917194232344627,0.01454671286046505,-0.01286278385668993,-0.14127309620380402,0.02247101441025734,-0.026237472891807556
1678956295.71227,18,1678956295,706311000,,-0.00011055530922021717,-0.0005677729495801032,-0.0019598931539803743,-0.39812374114990234,-0.009431878104805946,0.016911450773477554,0.9171273708343506,0.0033917194232344627,0.01454671286046505,-0.01286278385668993,-0.14127309620380402,0.02247101441025734,-0.026237472891807556
1678956295.7191458,20,1678956295,712510000,,-9.155203588306904e-05,-0.0004848014796152711,-0.0020130451302975416,-0.3982212245464325,-0.00945284217596054,0.016810040920972824,0.9170867204666138,0.004047940485179424,0.017737751826643944,-0.009240689687430859,0.014489246532320976,-0.0819634348154068,-0.022137027233839035
1678956295.722713,21,1678956295,718722000,,-0.00014104755246080458,-0.0007373103871941566,-0.001393200014717877,-0.3978255093097687,-0.009670211933553219,0.016644814983010292,0.9172592163085938,0.004185813944786787,0.030732406303286552,0.00787920318543911,0.1696731448173523,-0.06737682968378067,0.004850353114306927
1678956295.727029,22,1678956295,718722000,,-0.00014104755246080458,-0.0007373103871941566,-0.001393200014717877,-0.3978255093097687,-0.009670211933553219,0.016644814983010292,0.9172592163085938,0.004185813944786787,0.030732406303286552,0.00787920318543911,0.1696731448173523,-0.06737682968378067,0.004850353114306927
1678956295.731039,23,1678956295,718722000,,-0.00014104755246080458,-0.0007373103871941566,-0.001393200014717877,-0.3978255093097687,-0.009670211933553219,0.016644814983010292,0.9172592163085938,0.004185813944786787,0.030732406303286552,0.00787920318543911,0.1696731448173523,-0.06737682968378067,0.004850353114306927
1678956295.740429,24,1678956295,735227000,,-0.00013131654122844338,-0.0009442196460440755,-0.001660996931605041,-0.3976472318172455,-0.009488139301538467,0.01689954474568367,0.917333722114563,0.000678002426866442,-0.01571628265082836,-0.01732781156897545,-0.013850080780684948,-0.02141527831554413,0.043440256267786026
1678956295.7498722,25,1678956295,742434000,,-0.00012913940008729696,-0.0010461278725415468,-0.0017619635909795761,-0.3977099657058716,-0.009597417898476124,0.016871018335223198,0.9173058867454529,7.851148257032037e-05,-0.02447466179728508,-0.021876152604818344,-0.028718357905745506,-0.05917984992265701,-0.03273799270391464
1678956295.752863,26,1678956295,748708000,,-0.00014032929902896285,-0.0006894851103425026,-0.0013515602331608534,-0.39764711260795593,-0.009629737585783005,0.01669706031680107,0.9173359870910645,-0.0014606021577492356,0.03218648582696915,0.009132993407547474,0.040596552193164825,0.018800321966409683,0.027626780793070793
1678956295.75545,27,1678956295,748708000,,-0.00014032929902896285,-0.0006894851103425026,-0.0013515602331608534,-0.39764711260795593,-0.009629737585783005,0.01669706031680107,0.9173359870910645,-0.0014606021577492356,0.03218648582696915,0.009132993407547474,0.040596552193164825,0.018800321966409683,0.027626780793070793
1678956295.7592232,28,1678956295,748708000,,-0.00014032929902896285,-0.0006894851103425026,-0.0013515602331608534,-0.39764711260795593,-0.009629737585783005,0.01669706031680107,0.9173359870910645,-0.0014606021577492356,0.03218648582696915,0.009132993407547474,0.040596552193164825,0.018800321966409683,0.027626780793070793
1678956295.7615602,29,1678956295,748708000,,-0.00014032929902896285,-0.0006894851103425026,-0.0013515602331608534,-0.39764711260795593,-0.009629737585783005,0.01669706031680107,0.9173359870910645,-0.0014606021577492356,0.03218648582696915,0.009132993407547474,0.040596552193164825,0.018800321966409683,0.027626780793070793
1678956295.7660367,30,1678956295,765301000,,-0.00017800689965952188,-0.0006228805286809802,-0.0013775895349681377,-0.3979107737541199,-0.009468491189181805,0.0168444886803627,0.9172205924987793,-0.003320468356832862,0.004230542574077845,-0.0028781024739146233,0.15672996640205383,-0.043270044028759,-0.047706231474876404
1678956295.7707202,31,1678956295,765301000,,-0.00017800689965952188,-0.0006228805286809802,-0.0013775895349681377,-0.3979107737541199,-0.009468491189181805,0.0168444886803627,0.9172205924987793,-0.003320468356832862,0.004230542574077845,-0.0028781024739146233,0.15672996640205383,-0.043270044028759,-0.047706231474876404
1678956295.7741332,32,1678956295,765301000,,-0.00017800689965952188,-0.0006228805286809802,-0.0013775895349681377,-0.3979107737541199,-0.009468491189181805,0.0168444886803627,0.9172205924987793,-0.003320468356832862,0.004230542574077845,-0.0028781024739146233,0.15672996640205383,-0.043270044028759,-0.047706231474876404
1678956295.776081,33,1678956295,773462000,,-0.0001933141320478171,-0.0005358056514523923,-0.0013709176564589143,-0.39789023995399475,-0.009599902667105198,0.01668780855834484,0.917231023311615,-0.0011065067956224084,0.007328597363084555,0.0020733673591166735,-0.09830319881439209,0.03019028715789318,0.006154131144285202
1678956295.7785282,34,1678956295,773462000,,-0.0001933141320478171,-0.0005358056514523923,-0.0013709176564589143,-0.39789023995399475,-0.009599902667105198,0.01668780855834484,0.917231023311615,-0.0011065067956224084,0.007328597363084555,0.0020733673591166735,-0.09830319881439209,0.03019028715789318,0.006154131144285202
1678956295.7809176,35,1678956295,779084000,,-0.00019708334002643824,-0.0004979031509719789,-0.0013570516603067517,-0.3978973925113678,-0.009492781944572926,0.016770172864198685,0.917227566242218,-0.0003372168866917491,0.007614531554281712,0.0032793651334941387,0.032915446907281876,0.05037092790007591,0.020488590002059937
1678956295.7868044,36,1678956295,779084000,,-0.00019708334002643824,-0.0004979031509719789,-0.0013570516603067517,-0.3978973925113678,-0.009492781944572926,0.016770172864198685,0.917227566242218,-0.0003372168866917491,0.007614531554281712,0.0032793651334941387,0.032915446907281876,0.05037092790007591,0.020488590002059937
1678956295.789854,37,1678956295,785563000,,-0.00033513133530505,-0.0009861263679340482,-0.0011468924349173903,-0.3977733254432678,-0.009471087716519833,0.01670590229332447,0.91728276014328,0.0002667179796844721,-0.004688330460339785,0.02409541793167591,-0.01794874668121338,-0.0002790715079754591,0.017592109739780426
1678956295.792828,38,1678956295,785563000,,-0.00033513133530505,-0.0009861263679340482,-0.0011468924349173903,-0.3977733254432678,-0.009471087716519833,0.01670590229332447,0.91728276014328,0.0002667179796844721,-0.004688330460339785,0.02409541793167591,-0.01794874668121338,-0.0002790715079754591,0.017592109739780426
1678956295.795515,39,1678956295,785563000,,-0.00033513133530505,-0.0009861263679340482,-0.0011468924349173903,-0.3977733254432678,-0.009471087716519833,0.01670590229332447,0.91728276014328,0.0002667179796844721,-0.004688330460339785,0.02409541793167591,-0.01794874668121338,-0.0002790715079754591,0.017592109739780426
1678956295.7977057,40,1678956295,785563000,,-0.00033513133530505,-0.0009861263679340482,-0.0011468924349173903,-0.3977733254432678,-0.009471087716519833,0.01670590229332447,0.91728276014328,0.0002667179796844721,-0.004688330460339785,0.02409541793167591,-0.01794874668121338,-0.0002790715079754591,0.017592109739780426
1678956295.7995238,41,1678956295,785563000,,-0.00033513133530505,-0.0009861263679340482,-0.0011468924349173903,-0.3977733254432678,-0.009471087716519833,0.01670590229332447,0.91728276014328,0.0002667179796844721,-0.004688330460339785,0.02409541793167591,-0.01794874668121338,-0.0002790715079754591,0.017592109739780426
1678956295.802423,42,1678956295,801203000,,-0.00037832962698303163,-0.0010615787468850613,-0.001048465957865119,-0.39775848388671875,-0.009483504109084606,0.016502587124705315,0.9172927141189575,0.0003146928793285042,-0.0008468396263197064,0.011131936684250832,0.22003397345542908,-0.019894663244485855,-0.0044721271842718124
1678956295.8052788,43,1678956295,801203000,,-0.00037832962698303163,-0.0010615787468850613,-0.001048465957865119,-0.39775848388671875,-0.009483504109084606,0.016502587124705315,0.9172927141189575,0.0003146928793285042,-0.0008468396263197064,0.011131936684250832,0.22003397345542908,-0.019894663244485855,-0.0044721271842718124
1678956295.8127663,44,1678956295,808252000,,-0.000372835696907714,-0.0010604659328237176,-0.0009960477473214269,-0.3973290026187897,-0.009554725140333176,0.016568563878536224,0.9174768924713135,0.0014470169553533196,0.00141171645373106,0.012725847773253918,0.009845418855547905,0.011456901207566261,0.05598340928554535
1678956295.8151155,45,1678956295,808252000,,-0.000372835696907714,-0.0010604659328237176,-0.0009960477473214269,-0.3973290026187897,-0.009554725140333176,0.016568563878536224,0.9174768924713135,0.0014470169553533196,0.00141171645373106,0.012725847773253918,0.009845418855547905,0.011456901207566261,0.05598340928554535
1678956295.8188047,46,1678956295,814427000,,-0.00036218707100488245,-0.0010446952655911446,-0.0009306402062065899,-0.39771103858947754,-0.009530008770525455,0.016708988696336746,0.9173091053962708,0.0025952099822461605,0.003191511146724224,0.014646119438111782,-0.2426486611366272,0.02806084416806698,0.02898341789841652
1678956295.8230693,47,1678956295,814427000,,-0.00036218707100488245,-0.0010446952655911446,-0.0009306402062065899,-0.39771103858947754,-0.009530008770525455,0.016708988696336746,0.9173091053962708,0.0025952099822461605,0.003191511146724224,0.014646119438111782,-0.2426486611366272,0.02806084416806698,0.02898341789841652
1678956295.8242023,48,1678956295,814427000,,-0.00036218707100488245,-0.0010446952655911446,-0.0009306402062065899,-0.39771103858947754,-0.009530008770525455,0.016708988696336746,0.9173091053962708,0.0025952099822461605,0.003191511146724224,0.014646119438111782,-0.2426486611366272,0.02806084416806698,0.02898341789841652
1678956295.8261166,49,1678956295,814427000,,-0.00036218707100488245,-0.0010446952655911446,-0.0009306402062065899,-0.39771103858947754,-0.009530008770525455,0.016708988696336746,0.9173091053962708,0.0025952099822461605,0.003191511146724224,0.014646119438111782,-0.2426486611366272,0.02806084416806698,0.02898341789841652
1678956295.8291597,50,1678956295,826918000,,-0.0002043848653556779,-0.000699555326718837,-0.00128460256382823,-0.39798396825790405,-0.00949079729616642,0.01682780124247074,0.9171889424324036,0.0018794250208884478,0.016881687566637993,-0.00358020281419158,0.04569319263100624,-0.024169133976101875,-0.030504170805215836
1678956295.831586,51,1678956295,826918000,,-0.0002043848653556779,-0.000699555326718837,-0.00128460256382823,-0.39798396825790405,-0.00949079729616642,0.01682780124247074,0.9171889424324036,0.0018794250208884478,0.016881687566637993,-0.00358020281419158,0.04569319263100624,-0.024169133976101875,-0.030504170805215836
1678956295.8334413,52,1678956295,831874000,,-0.00018729545990936458,-0.0005458473460748792,-0.0013468171237036586,-0.3973863422870636,-0.009700007736682892,0.016626136377453804,0.9174495339393616,0.0012063225731253624,0.02169167250394821,-0.008452551439404488,0.0015752313192933798,-0.014375807717442513,0.012768278829753399
1678956295.8386836,53,1678956295,835416000,,-0.00018209192785434425,-0.000417121424106881,-0.00140775041654706,-0.3974479138851166,-0.009639882482588291,0.016695130616426468,0.9174222350120544,0.000824115879368037,0.025322191417217255,-0.011387367732822895,0.003714414779096842,0.07223953306674957,0.011474289000034332
1678956295.8429463,54,1678956295,835416000,,-0.00018209192785434425,-0.000417121424106881,-0.00140775041654706,-0.3974479138851166,-0.009639882482588291,0.016695130616426468,0.9174222350120544,0.000824115879368037,0.025322191417217255,-0.011387367732822895,0.003714414779096842,0.07223953306674957,0.011474289000034332
1678956295.848693,55,1678956295,835416000,,-0.00018209192785434425,-0.000417121424106881,-0.00140775041654706,-0.3974479138851166,-0.009639882482588291,0.016695130616426468,0.9174222350120544,0.000824115879368037,0.025322191417217255,-0.011387367732822895,0.003714414779096842,0.07223953306674957,0.011474289000034332
1678956295.8510609,56,1678956295,846756000,,-0.00017219521396327764,-0.00044728186912834644,-0.0012809962499886751,-0.39778828620910645,-0.009502572938799858,0.01687033660709858,0.9172728657722473,0.0007695787935517728,-8.319271728396416e-06,0.006140373647212982,-0.11383165419101715,-0.03790193796157837,-0.0026223519816994667
1678956295.8543963,57,1678956295,852301000,,-0.00024415957159362733,-6.0321737691992894e-05,-0.0014596401015296578,-0.39762425422668457,-0.009604413993656635,0.0166914239525795,0.9173462986946106,-0.004528702702373266,0.018571974709630013,-0.013910423032939434,0.10059831291437149,0.020281001925468445,-0.04151029884815216
1678956295.857648,58,1678956295,852301000,,-0.00024415957159362733,-6.0321737691992894e-05,-0.0014596401015296578,-0.39762425422668457,-0.009604413993656635,0.0166914239525795,0.9173462986946106,-0.004528702702373266,0.018571974709630013,-0.013910423032939434,0.10059831291437149,0.020281001925468445,-0.04151029884815216
1678956295.860393,59,1678956295,852301000,,-0.00024415957159362733,-6.0321737691992894e-05,-0.0014596401015296578,-0.39762425422668457,-0.009604413993656635,0.0166914239525795,0.9173462986946106,-0.004528702702373266,0.018571974709630013,-0.013910423032939434,0.10059831291437149,0.020281001925468445,-0.04151029884815216
1678956295.8623714,60,1678956295,852301000,,-0.00024415957159362733,-6.0321737691992894e-05,-0.0014596401015296578,-0.39762425422668457,-0.009604413993656635,0.0166914239525795,0.9173462986946106,-0.004528702702373266,0.018571974709630013,-0.013910423032939434,0.10059831291437149,0.020281001925468445,-0.04151029884815216
1678956295.8645797,61,1678956295,852301000,,-0.00024415957159362733,-6.0321737691992894e-05,-0.0014596401015296578,-0.39762425422668457,-0.009604413993656635,0.0166914239525795,0.9173462986946106,-0.004528702702373266,0.018571974709630013,-0.013910423032939434,0.10059831291437149,0.020281001925468445,-0.04151029884815216
1678956295.8675396,62,1678956295,852301000,,-0.00024415957159362733,-6.0321737691992894e-05,-0.0014596401015296578,-0.39762425422668457,-0.009604413993656635,0.0166914239525795,0.9173462986946106,-0.004528702702373266,0.018571974709630013,-0.013910423032939434,0.10059831291437149,0.020281001925468445,-0.04151029884815216
1678956295.8695662,63,1678956295,867932000,,-0.00027452854556031525,0.0002052927011391148,-0.001667689997702837,-0.39794498682022095,-0.009382500313222408,0.01677548699080944,0.9172078967094421,0.0012081325985491276,0.016920017078518867,-0.012422489002346992,-0.011533810757100582,-0.025707054883241653,-0.027188200503587723
1678956295.872937,64,1678956295,867932000,,-0.00027452854556031525,0.0002052927011391148,-0.001667689997702837,-0.39794498682022095,-0.009382500313222408,0.01677548699080944,0.9172078967094421,0.0012081325985491276,0.016920017078518867,-0.012422489002346992,-0.011533810757100582,-0.025707054883241653,-0.027188200503587723
1678956295.8749893,65,1678956295,867932000,,-0.00027452854556031525,0.0002052927011391148,-0.001667689997702837,-0.39794498682022095,-0.009382500313222408,0.01677548699080944,0.9172078967094421,0.0012081325985491276,0.016920017078518867,-0.012422489002346992,-0.011533810757100582,-0.025707054883241653,-0.027188200503587723
1678956295.8773193,66,1678956295,874291000,,-0.000262106885202229,0.0002875995996873826,-0.0017242998583242297,-0.3978981077671051,-0.009467849507927895,0.01668446697294712,0.9172291159629822,0.00379378953948617,0.01609211228787899,-0.010446172207593918,0.0691608190536499,-0.05755014717578888,-0.00519257877022028
1678956295.8792036,67,1678956295,874291000,,-0.000262106885202229,0.0002875995996873826,-0.0017242998583242297,-0.3978981077671051,-0.009467849507927895,0.01668446697294712,0.9172291159629822,0.00379378953948617,0.01609211228787899,-0.010446172207593918,0.0691608190536499,-0.05755014717578888,-0.00519257877022028
1678956295.8838036,68,1678956295,881383000,,-0.00023620529100298882,0.0003663443203549832,-0.0017783410148695111,-0.3977912962436676,-0.009570568799972534,0.016666103154420853,0.9172745943069458,0.006382829509675503,0.01525444258004427,-0.009307458996772766,-0.03857804462313652,-0.002854348625987768,0.020444724708795547
1678956295.886175,69,1678956295,881383000,,-0.00023620529100298882,0.0003663443203549832,-0.0017783410148695111,-0.3977912962436676,-0.009570568799972534,0.016666103154420853,0.9172745943069458,0.006382829509675503,0.01525444258004427,-0.009307458996772766,-0.03857804462313652,-0.002854348625987768,0.020444724708795547
1678956295.889897,70,1678956295,881383000,,-0.00023620529100298882,0.0003663443203549832,-0.0017783410148695111,-0.3977912962436676,-0.009570568799972534,0.016666103154420853,0.9172745943069458,0.006382829509675503,0.01525444258004427,-0.009307458996772766,-0.03857804462313652,-0.002854348625987768,0.020444724708795547
1678956295.8935406,71,1678956295,881383000,,-0.00023620529100298882,0.0003663443203549832,-0.0017783410148695111,-0.3977912962436676,-0.009570568799972534,0.016666103154420853,0.9172745943069458,0.006382829509675503,0.01525444258004427,-0.009307458996772766,-0.03857804462313652,-0.002854348625987768,0.020444724708795547
1678956295.8958673,72,1678956295,881383000,,-0.00023620529100298882,0.0003663443203549832,-0.0017783410148695111,-0.3977912962436676,-0.009570568799972534,0.016666103154420853,0.9172745943069458,0.006382829509675503,0.01525444258004427,-0.009307458996772766,-0.03857804462313652,-0.002854348625987768,0.020444724708795547
1678956295.8982186,73,1678956295,895681000,,-0.00028314374503679574,0.0004974176408722997,-0.0018595136934891343,-0.3980340361595154,-0.009516916237771511,0.016746526584029198,0.9171684384346008,-0.0032343179918825626,0.02233600616455078,-0.01280614361166954,-0.11578944325447083,0.047493863850831985,0.015325748361647129
1678956295.900728,74,1678956295,900114000,,-0.0004720012948382646,0.00016059073095675558,-0.0009845496388152242,-0.3974085748195648,-0.009691869840025902,0.0167898777872324,0.9174370169639587,-0.0072463033720850945,0.004805673845112324,0.007238826714456081,0.059096064418554306,0.0017339051701128483,0.021543998271226883
1678956295.903419,75,1678956295,900114000,,-0.0004720012948382646,0.00016059073095675558,-0.0009845496388152242,-0.3974085748195648,-0.009691869840025902,0.0167898777872324,0.9174370169639587,-0.0072463033720850945,0.004805673845112324,0.007238826714456081,0.059096064418554306,0.0017339051701128483,0.021543998271226883
1678956295.9065046,76,1678956295,903407000,,-0.0005088687175884843,0.00016855607100296766,-0.0009559450554661453,-0.39742863178253174,-0.009652039036154747,0.016868095844984055,0.9174273014068604,-0.0075449030846357346,-0.0018441762076690793,0.0059830378741025925,-0.1318456083536148,0.035536281764507294,0.017939090728759766
1678956295.9094357,77,1678956295,903407000,,-0.0005088687175884843,0.00016855607100296766,-0.0009559450554661453,-0.39742863178253174,-0.009652039036154747,0.016868095844984055,0.9174273014068604,-0.0075449030846357346,-0.0018441762076690793,0.0059830378741025925,-0.1318456083536148,0.035536281764507294,0.017939090728759766
1678956295.911386,78,1678956295,903407000,,-0.0005088687175884843,0.00016855607100296766,-0.0009559450554661453,-0.39742863178253174,-0.009652039036154747,0.016868095844984055,0.9174273014068604,-0.0075449030846357346,-0.0018441762076690793,0.0059830378741025925,-0.1318456083536148,0.035536281764507294,0.017939090728759766
1678956295.9141839,79,1678956295,911495000,,-0.0005477998056448996,0.0001429967232979834,-0.0009162898059003055,-0.3978244960308075,-0.009635484777390957,0.016917861998081207,0.9172549843788147,-0.007846135646104813,-0.008465553633868694,0.006211431697010994,-0.11544520407915115,-0.030262891203165054,0.01708810217678547
1678956295.9171312,80,1678956295,911495000,,-0.0005477998056448996,0.0001429967232979834,-0.0009162898059003055,-0.3978244960308075,-0.009635484777390957,0.016917861998081207,0.9172549843788147,-0.007846135646104813,-0.008465553633868694,0.006211431697010994,-0.11544520407915115,-0.030262891203165054,0.01708810217678547
1678956295.92198,81,1678956295,917239000,,-0.0005725480732508004,0.0004671709320973605,-0.0008146060281433165,-0.3979140520095825,-0.009776611812412739,0.01683630794286728,0.9172160625457764,-0.0058697909116744995,0.03798167034983635,0.01506901066750288,-0.009595838375389576,-0.08494535088539124,-0.054121848195791245
1678956295.924799,82,1678956295,917239000,,-0.0005725480732508004,0.0004671709320973605,-0.0008146060281433165,-0.3979140520095825,-0.009776611812412739,0.01683630794286728,0.9172160625457764,-0.0058697909116744995,0.03798167034983635,0.01506901066750288,-0.009595838375389576,-0.08494535088539124,-0.054121848195791245
1678956295.9275115,83,1678956295,917239000,,-0.0005725480732508004,0.0004671709320973605,-0.0008146060281433165,-0.3979140520095825,-0.009776611812412739,0.01683630794286728,0.9172160625457764,-0.0058697909116744995,0.03798167034983635,0.01506901066750288,-0.009595838375389576,-0.08494535088539124,-0.054121848195791245
1678956295.9307113,84,1678956295,917239000,,-0.0005725480732508004,0.0004671709320973605,-0.0008146060281433165,-0.3979140520095825,-0.009776611812412739,0.01683630794286728,0.9172160625457764,-0.0058697909116744995,0.03798167034983635,0.01506901066750288,-0.009595838375389576,-0.08494535088539124,-0.054121848195791245
1678956295.9324677,85,1678956295,917239000,,-0.0005725480732508004,0.0004671709320973605,-0.0008146060281433165,-0.3979140520095825,-0.009776611812412739,0.01683630794286728,0.9172160625457764,-0.0058697909116744995,0.03798167034983635,0.01506901066750288,-0.009595838375389576,-0.08494535088539124,-0.054121848195791245
1678956295.938023,86,1678956295,933736000,,-0.000455269095255062,0.000252444704528898,-0.0007648324244655669,-0.39711713790893555,-0.009700257331132889,0.01654048077762127,0.9175676703453064,-0.0013075530296191573,0.06866786628961563,0.015939027070999146,0.12131118774414062,0.06991289556026459,0.03491123765707016
1678956295.9419475,87,1678956295,937137000,,-0.0003988363314419985,-0.00021061649022158235,-0.0007974989712238312,-0.39749839901924133,-0.009587625041604042,0.016889283433556557,0.9173973798751831,0.0057661752216517925,-0.021614080294966698,-0.0005696024163626134,-0.09702765196561813,-0.024706728756427765,0.006022714544087648
1678956295.9441566,88,1678956295,942656000,,-0.00032059289515018463,-0.0005692222621291876,-0.0008392276940867305,-0.3977389335632324,-0.009838285855948925,0.016511868685483932,0.9172973036766052,0.009901266545057297,-0.051578640937805176,-0.007693029474467039,0.04304514452815056,-0.05422866716980934,-0.05379229411482811
1678956295.9478314,89,1678956295,942656000,,-0.00032059289515018463,-0.0005692222621291876,-0.0008392276940867305,-0.3977389335632324,-0.009838285855948925,0.016511868685483932,0.9172973036766052,0.009901266545057297,-0.051578640937805176,-0.007693029474467039,0.04304514452815056,-0.05422866716980934,-0.05379229411482811
1678956295.9510725,90,1678956295,949313000,,-0.00039786333218216896,-0.00011660013115033507,-0.0007865735678933561,-0.39747709035873413,-0.009812903590500355,0.016431406140327454,0.917412519454956,-0.003307526232674718,0.019692353904247284,0.0004955951008014381,0.1311323493719101,0.05264764651656151,-0.013635123148560524
1678956295.9529405,91,1678956295,949313000,,-0.00039786333218216896,-0.00011660013115033507,-0.0007865735678933561,-0.39747709035873413,-0.009812903590500355,0.016431406140327454,0.917412519454956,-0.003307526232674718,0.019692353904247284,0.0004955951008014381,0.1311323493719101,0.05264764651656151,-0.013635123148560524
1678956295.9553936,92,1678956295,949313000,,-0.00039786333218216896,-0.00011660013115033507,-0.0007865735678933561,-0.39747709035873413,-0.009812903590500355,0.016431406140327454,0.917412519454956,-0.003307526232674718,0.019692353904247284,0.0004955951008014381,0.1311323493719101,0.05264764651656151,-0.013635123148560524
1678956295.9579291,93,1678956295,949313000,,-0.00039786333218216896,-0.00011660013115033507,-0.0007865735678933561,-0.39747709035873413,-0.009812903590500355,0.016431406140327454,0.917412519454956,-0.003307526232674718,0.019692353904247284,0.0004955951008014381,0.1311323493719101,0.05264764651656151,-0.013635123148560524
1678956295.9613101,94,1678956295,949313000,,-0.00039786333218216896,-0.00011660013115033507,-0.0007865735678933561,-0.39747709035873413,-0.009812903590500355,0.016431406140327454,0.917412519454956,-0.003307526232674718,0.019692353904247284,0.0004955951008014381,0.1311323493719101,0.05264764651656151,-0.013635123148560524
1678956295.964147,95,1678956295,949313000,,-0.00039786333218216896,-0.00011660013115033507,-0.0007865735678933561,-0.39747709035873413,-0.009812903590500355,0.016431406140327454,0.917412519454956,-0.003307526232674718,0.019692353904247284,0.0004955951008014381,0.1311323493719101,0.05264764651656151,-0.013635123148560524
1678956295.9670632,96,1678956295,965618000,,-0.000438754097558558,0.00017387798288837075,-0.0010493439622223377,-0.3977299928665161,-0.009603443555533886,0.01674320176243782,0.9172994494438171,-0.013027426786720753,0.05490021035075188,0.015184805728495121,-0.06269948184490204,0.01647726446390152,0.04640457034111023
1678956295.9693258,97,1678956295,966502000,,-0.00039407555595971644,-9.664362005423754e-05,-0.0011210747761651874,-0.39790984988212585,-0.009851737879216671,0.016562579199671745,0.9172221422195435,-0.0015488403150811791,-0.0022123921662569046,0.0013335130643099546,0.06951551139354706,-0.08548375964164734,-0.047288715839385986
1678956295.975035,98,1678956295,972920000,,-0.00039939387352205813,-0.00012345716822892427,-0.0011246753856539726,-0.39762383699417114,-0.00992215983569622,0.016449902206659317,0.9173473715782166,-0.0004495893372222781,-0.009434526786208153,-0.00023219402646645904,0.06838876008987427,0.013508516363799572,-0.0029956004582345486
1678956295.9794765,99,1678956295,972920000,,-0.00039939387352205813,-0.00012345716822892427,-0.0011246753856539726,-0.39762383699417114,-0.00992215983569622,0.016449902206659317,0.9173473715782166,-0.0004495893372222781,-0.009434526786208153,-0.00023219402646645904,0.06838876008987427,0.013508516363799572,-0.0029956004582345486
1678956295.9822094,100,1678956295,979421000,,-0.0004217219538986683,2.783762101898901e-05,-0.0010879747569561005,-0.39766591787338257,-0.00983102060854435,0.01656934805214405,0.9173280000686646,-0.002560350578278303,0.013782687485218048,0.005399253219366074,-0.06111207976937294,0.07085754722356796,0.06163538992404938
1678956295.9862075,101,1678956295,979421000,,-0.0004217219538986683,2.783762101898901e-05,-0.0010879747569561005,-0.39766591787338257,-0.00983102060854435,0.01656934805214405,0.9173280000686646,-0.002560350578278303,0.013782687485218048,0.005399253219366074,-0.06111207976937294,0.07085754722356796,0.06163538992404938
1678956295.9903336,102,1678956295,987218000,,-0.00019008677918463945,-0.0010179185774177313,-0.0010290652280673385,-0.3973167836666107,-0.00975271686911583,0.016747597604990005,0.9174768924713135,0.0005130438366904855,0.008805056102573872,0.01752806454896927,0.03624918311834335,0.05697109177708626,0.038861945271492004
1678956295.993448,103,1678956295,987218000,,-0.00019008677918463945,-0.0010179185774177313,-0.0010290652280673385,-0.3973167836666107,-0.00975271686911583,0.016747597604990005,0.9174768924713135,0.0005130438366904855,0.008805056102573872,0.01752806454896927,0.03624918311834335,0.05697109177708626,0.038861945271492004
1678956295.995606,104,1678956295,987218000,,-0.00019008677918463945,-0.0010179185774177313,-0.0010290652280673385,-0.3973167836666107,-0.00975271686911583,0.016747597604990005,0.9174768924713135,0.0005130438366904855,0.008805056102573872,0.01752806454896927,0.03624918311834335,0.05697109177708626,0.038861945271492004
1678956295.9973745,105,1678956295,987218000,,-0.00019008677918463945,-0.0010179185774177313,-0.0010290652280673385,-0.3973167836666107,-0.00975271686911583,0.016747597604990005,0.9174768924713135,0.0005130438366904855,0.008805056102573872,0.01752806454896927,0.03624918311834335,0.05697109177708626,0.038861945271492004
1678956296.0000153,106,1678956295,998854000,,-0.00016093197336886078,-0.0010161370737478137,-0.0009100714814849198,-0.3970496654510498,-0.009772686287760735,0.016646772623062134,0.9175941348075867,0.00329315266571939,0.0012946779606863856,0.014830091968178749,0.0729888528585434,-0.05547265335917473,-0.015298373997211456
1678956296.0023649,107,1678956295,998854000,,-0.00016093197336886078,-0.0010161370737478137,-0.0009100714814849198,-0.3970496654510498,-0.009772686287760735,0.016646772623062134,0.9175941348075867,0.00329315266571939,0.0012946779606863856,0.014830091968178749,0.0729888528585434,-0.05547265335917473,-0.015298373997211456
1678956296.0059237,108,1678956296,2693000,,-0.00011959379480686039,-0.0010052084689959884,-0.0007557597709819674,-0.3972417414188385,-0.009888064116239548,0.016651589423418045,0.9175096750259399,0.004995968658477068,-0.0007804756751284003,0.01617630012333393,-0.19923724234104156,0.03678058460354805,0.0008424641564488411
1678956296.0086265,109,1678956296,2693000,,-0.00011959379480686039,-0.0010052084689959884,-0.0007557597709819674,-0.3972417414188385,-0.009888064116239548,0.016651589423418045,0.9175096750259399,0.004995968658477068,-0.0007804756751284003,0.01617630012333393,-0.19923724234104156,0.03678058460354805,0.0008424641564488411
1678956296.0123494,110,1678956296,2693000,,-0.00011959379480686039,-0.0010052084689959884,-0.0007557597709819674,-0.3972417414188385,-0.009888064116239548,0.016651589423418045,0.9175096750259399,0.004995968658477068,-0.0007804756751284003,0.01617630012333393,-0.19923724234104156,0.03678058460354805,0.0008424641564488411
1678956296.0143843,111,1678956296,2693000,,-0.00011959379480686039,-0.0010052084689959884,-0.0007557597709819674,-0.3972417414188385,-0.009888064116239548,0.016651589423418045,0.9175096750259399,0.004995968658477068,-0.0007804756751284003,0.01617630012333393,-0.19923724234104156,0.03678058460354805,0.0008424641564488411
1678956296.0214086,112,1678956296,18728000,,-9.284679981647059e-05,-0.0009082649485208094,-0.0007265554158948362,-0.39760762453079224,-0.009799204766750336,0.016662297770380974,0.9173519015312195,0.005953245796263218,0.013055067509412766,0.010925074107944965,-0.06617561727762222,-0.013922536745667458,-0.017918866127729416
1678956296.0237994,113,1678956296,18728000,,-9.284679981647059e-05,-0.0009082649485208094,-0.0007265554158948362,-0.39760762453079224,-0.009799204766750336,0.016662297770380974,0.9173519015312195,0.005953245796263218,0.013055067509412766,0.010925074107944965,-0.06617561727762222,-0.013922536745667458,-0.017918866127729416
1678956296.0257177,114,1678956296,24385000,,-4.02539772039745e-05,-0.0007905559032224119,-0.0009362842538394034,-0.39762774109840393,-0.00980729702860117,0.016683248803019524,0.9173427224159241,0.007370816543698311,0.0269604604691267,-0.0038616317324340343,0.23003217577934265,-0.0662929117679596,0.005195392295718193
1678956296.0298219,115,1678956296,27948000,,1.2004580639768392e-05,-0.0009788853349164128,-0.0010770908556878567,-0.3973884880542755,-0.009587705135345459,0.01673237420618534,0.9174478650093079,0.002501507755368948,-0.02335042506456375,-0.013849790208041668,-0.06474830210208893,-0.010516012087464333,0.04540524259209633
1678956296.03447,116,1678956296,27948000,,1.2004580639768392e-05,-0.0009788853349164128,-0.0010770908556878567,-0.3973884880542755,-0.009587705135345459,0.01673237420618534,0.9174478650093079,0.002501507755368948,-0.02335042506456375,-0.013849790208041668,-0.06474830210208893,-0.010516012087464333,0.04540524259209633
1678956296.0363038,117,1678956296,27948000,,1.2004580639768392e-05,-0.0009788853349164128,-0.0010770908556878567,-0.3973884880542755,-0.009587705135345459,0.01673237420618534,0.9174478650093079,0.002501507755368948,-0.02335042506456375,-0.013849790208041668,-0.06474830210208893,-0.010516012087464333,0.04540524259209633
1678956296.0386138,118,1678956296,27948000,,1.2004580639768392e-05,-0.0009788853349164128,-0.0010770908556878567,-0.3973884880542755,-0.009587705135345459,0.01673237420618534,0.9174478650093079,0.002501507755368948,-0.02335042506456375,-0.013849790208041668,-0.06474830210208893,-0.010516012087464333,0.04540524259209633
1678956296.0420873,119,1678956296,39386000,,2.0601819414878264e-05,-0.0011563074076548219,-0.0011837925994768739,-0.39746344089508057,-0.009766855277121067,0.016774682328104973,0.9174126982688904,0.0015327325090765953,-0.03624199330806732,-0.0188578050583601,-0.08231083303689957,-0.07523955404758453,0.010113364085555077
1678956296.0467684,120,1678956296,42214000,,4.6091023250482976e-05,-0.0009738396620377898,-0.0013215268263593316,-0.3974393308162689,-0.009768994525074959,0.01651066169142723,0.9174279570579529,0.001645664218813181,0.010607771575450897,-0.01793111301958561,0.18770967423915863,0.01393627654761076,-0.004225638695061207
1678956296.0513742,121,1678956296,42214000,,4.6091023250482976e-05,-0.0009738396620377898,-0.0013215268263593316,-0.3974393308162689,-0.009768994525074959,0.01651066169142723,0.9174279570579529,0.001645664218813181,0.010607771575450897,-0.01793111301958561,0.18770967423915863,0.01393627654761076,-0.004225638695061207
1678956296.0551374,122,1678956296,52241000,,-0.0002836179919540882,-0.0007023377111181617,-0.0005300419870764017,-0.3970126509666443,-0.009865148924291134,0.016849640756845474,0.917605459690094,-0.004818555898964405,0.0585644468665123,0.029622182250022888,-0.11008564382791519,0.0762842446565628,0.017925357446074486
1678956296.0586624,123,1678956296,52241000,,-0.0002836179919540882,-0.0007023377111181617,-0.0005300419870764017,-0.3970126509666443,-0.009865148924291134,0.016849640756845474,0.917605459690094,-0.004818555898964405,0.0585644468665123,0.029622182250022888,-0.11008564382791519,0.0762842446565628,0.017925357446074486
1678956296.063009,124,1678956296,58889000,,-0.00028087347163818777,-0.001126284128986299,-0.0004381336038932204,-0.39730304479599,-0.009699790738523006,0.016811376437544823,0.9174821376800537,-0.0023143331054598093,-0.0032429788261651993,0.027879269793629646,-0.12107033282518387,-0.011094067245721817,-0.07977905124425888
1678956296.0654113,125,1678956296,58889000,,-0.00028087347163818777,-0.001126284128986299,-0.0004381336038932204,-0.39730304479599,-0.009699790738523006,0.016811376437544823,0.9174821376800537,-0.0023143331054598093,-0.0032429788261651993,0.027879269793629646,-0.12107033282518387,-0.011094067245721817,-0.07977905124425888
1678956296.0675254,126,1678956296,58889000,,-0.00028087347163818777,-0.001126284128986299,-0.0004381336038932204,-0.39730304479599,-0.009699790738523006,0.016811376437544823,0.9174821376800537,-0.0023143331054598093,-0.0032429788261651993,0.027879269793629646,-0.12107033282518387,-0.011094067245721817,-0.07977905124425888
1678956296.0748298,127,1678956296,69119000,,-0.0002981380675919354,-0.0012694667093455791,-0.0001518021890660748,-0.3973734676837921,-0.010132553987205029,0.01639019511640072,0.9174546599388123,-0.0014877925859764218,-0.023839369416236877,0.03089088760316372,0.03509511798620224,-0.06378354132175446,-0.0018678130581974983
1678956296.0774071,128,1678956296,75423000,,-0.0003109645622316748,-0.0012186607345938683,-0.0001370938989566639,-0.3974047303199768,-0.01006323378533125,0.0164314154535532,0.9174410700798035,-0.0020981193520128727,-0.0057805730029940605,0.012912269681692123,-0.0596366710960865,0.10884347558021545,0.01792619749903679
1678956296.0796247,129,1678956296,75423000,,-0.0003109645622316748,-0.0012186607345938683,-0.0001370938989566639,-0.3974047303199768,-0.01006323378533125,0.0164314154535532,0.9174410700798035,-0.0020981193520128727,-0.0057805730029940605,0.012912269681692123,-0.0596366710960865,0.10884347558021545,0.01792619749903679
1678956296.0828114,130,1678956296,75423000,,-0.0003109645622316748,-0.0012186607345938683,-0.0001370938989566639,-0.3974047303199768,-0.01006323378533125,0.0164314154535532,0.9174410700798035,-0.0020981193520128727,-0.0057805730029940605,0.012912269681692123,-0.0596366710960865,0.10884347558021545,0.01792619749903679
1678956296.084646,131,1678956296,82316000,,-0.0003225085965823382,-0.00124655372928828,-8.940500993048772e-05,-0.3974156975746155,-0.009839617647230625,0.01665639504790306,0.9174347519874573,-0.0021214422304183245,-0.004587365780025721,0.00576066505163908,0.12438847124576569,0.08352922648191452,0.08188337832689285
1678956296.0918126,132,1678956296,82316000,,-0.0003225085965823382,-0.00124655372928828,-8.940500993048772e-05,-0.3974156975746155,-0.009839617647230625,0.01665639504790306,0.9174347519874573,-0.0021214422304183245,-0.004587365780025721,0.00576066505163908,0.12438847124576569,0.08352922648191452,0.08188337832689285
1678956296.096319,133,1678956296,82316000,,-0.0003225085965823382,-0.00124655372928828,-8.940500993048772e-05,-0.3974156975746155,-0.009839617647230625,0.01665639504790306,0.9174347519874573,-0.0021214422304183245,-0.004587365780025721,0.00576066505163908,0.12438847124576569,0.08352922648191452,0.08188337832689285
1678956296.0985782,134,1678956296,82316000,,-0.0003225085965823382,-0.00124655372928828,-8.940500993048772e-05,-0.3974156975746155,-0.009839617647230625,0.01665639504790306,0.9174347519874573,-0.0021214422304183245,-0.004587365780025721,0.00576066505163908,0.12438847124576569,0.08352922648191452,0.08188337832689285
1678956296.1017249,135,1678956296,99829000,,-0.0003751697950065136,-0.0013800165615975857,-0.0005988283082842827,-0.39714905619621277,-0.009915650822222233,0.016290869563817978,0.9175559878349304,-0.008525059558451176,-0.007132043596357107,0.018187161535024643,-0.04532315954566002,-0.02780080959200859,0.02499854378402233
1678956296.1038332,136,1678956296,99829000,,-0.0003751697950065136,-0.0013800165615975857,-0.0005988283082842827,-0.39714905619621277,-0.009915650822222233,0.016290869563817978,0.9175559878349304,-0.008525059558451176,-0.007132043596357107,0.018187161535024643,-0.04532315954566002,-0.02780080959200859,0.02499854378402233
1678956296.1063662,137,1678956296,99829000,,-0.0003751697950065136,-0.0013800165615975857,-0.0005988283082842827,-0.39714905619621277,-0.009915650822222233,0.016290869563817978,0.9175559878349304,-0.008525059558451176,-0.007132043596357107,0.018187161535024643,-0.04532315954566002,-0.02780080959200859,0.02499854378402233
1678956296.1089647,138,1678956296,107404000,,-0.0003840808349195868,-0.0014045097632333636,-0.0005321244825609028,-0.3973689675331116,-0.009881437756121159,0.016376947984099388,0.9174596071243286,-0.004503234755247831,-0.007577184587717056,0.01548093929886818,-0.17280714213848114,0.0662706270813942,0.003937515430152416
1678956296.1117363,139,1678956296,107404000,,-0.0003840808349195868,-0.0014045097632333636,-0.0005321244825609028,-0.3973689675331116,-0.009881437756121159,0.016376947984099388,0.9174596071243286,-0.004503234755247831,-0.007577184587717056,0.01548093929886818,-0.17280714213848114,0.0662706270813942,0.003937515430152416
1678956296.11436,140,1678956296,107404000,,-0.0003840808349195868,-0.0014045097632333636,-0.0005321244825609028,-0.3973689675331116,-0.009881437756121159,0.016376947984099388,0.9174596071243286,-0.004503234755247831,-0.007577184587717056,0.01548093929886818,-0.17280714213848114,0.0662706270813942,0.003937515430152416
1678956296.1167843,141,1678956296,114877000,,-0.00030476690153591335,-0.0015795050421729684,4.4042160880053416e-05,-0.39759957790374756,-0.009720872156322002,0.01663142256438732,0.9173567891120911,0.00027309253346174955,-0.013647003099322319,0.028061572462320328,0.14328385889530182,-0.050857461988925934,0.016406893730163574
1678956296.119323,142,1678956296,114877000,,-0.00030476690153591335,-0.0015795050421729684,4.4042160880053416e-05,-0.39759957790374756,-0.009720872156322002,0.01663142256438732,0.9173567891120911,0.00027309253346174955,-0.013647003099322319,0.028061572462320328,0.14328385889530182,-0.050857461988925934,0.016406893730163574
1678956296.1217196,143,1678956296,114877000,,-0.00030476690153591335,-0.0015795050421729684,4.4042160880053416e-05,-0.39759957790374756,-0.009720872156322002,0.01663142256438732,0.9173567891120911,0.00027309253346174955,-0.013647003099322319,0.028061572462320328,0.14328385889530182,-0.050857461988925934,0.016406893730163574
1678956296.1238468,144,1678956296,114877000,,-0.00030476690153591335,-0.0015795050421729684,4.4042160880053416e-05,-0.39759957790374756,-0.009720872156322002,0.01663142256438732,0.9173567891120911,0.00027309253346174955,-0.013647003099322319,0.028061572462320328,0.14328385889530182,-0.050857461988925934,0.016406893730163574
1678956296.125644,145,1678956296,114877000,,-0.00030476690153591335,-0.0015795050421729684,4.4042160880053416e-05,-0.39759957790374756,-0.009720872156322002,0.01663142256438732,0.9173567891120911,0.00027309253346174955,-0.013647003099322319,0.028061572462320328,0.14328385889530182,-0.050857461988925934,0.016406893730163574
1678956296.1279404,146,1678956296,114877000,,-0.00030476690153591335,-0.0015795050421729684,4.4042160880053416e-05,-0.39759957790374756,-0.009720872156322002,0.01663142256438732,0.9173567891120911,0.00027309253346174955,-0.013647003099322319,0.028061572462320328,0.14328385889530182,-0.050857461988925934,0.016406893730163574
1678956296.1302512,147,1678956296,114877000,,-0.00030476690153591335,-0.0015795050421729684,4.4042160880053416e-05,-0.39759957790374756,-0.009720872156322002,0.01663142256438732,0.9173567891120911,0.00027309253346174955,-0.013647003099322319,0.028061572462320328,0.14328385889530182,-0.050857461988925934,0.016406893730163574
1678956296.133318,148,1678956296,114877000,,-0.00030476690153591335,-0.0015795050421729684,4.4042160880053416e-05,-0.39759957790374756,-0.009720872156322002,0.01663142256438732,0.9173567891120911,0.00027309253346174955,-0.013647003099322319,0.028061572462320328,0.14328385889530182,-0.050857461988925934,0.016406893730163574
1678956296.1351075,149,1678956296,133709000,,-0.0003531202382873744,-0.001523655722849071,0.0004279293934814632,-0.3977479040622711,-0.00983523204922676,0.01664896495640278,0.917290985584259,-0.002194714965298772,0.0022371471859514713,0.026778819039463997,-0.11210183799266815,-0.05147407203912735,-0.0007221708074212074
1678956296.1387515,150,1678956296,133709000,,-0.0003531202382873744,-0.001523655722849071,0.0004279293934814632,-0.3977479040622711,-0.00983523204922676,0.01664896495640278,0.917290985584259,-0.002194714965298772,0.0022371471859514713,0.026778819039463997,-0.11210183799266815,-0.05147407203912735,-0.0007221708074212074
1678956296.14386,151,1678956296,141535000,,-0.00036454893415793777,-0.0015017802361398935,0.0005682390765286982,-0.39787065982818604,-0.009895561262965202,0.016532478854060173,0.9172391891479492,-0.0024161117617040873,0.003863850375637412,0.030080053955316544,-0.016510551795363426,-0.027248041704297066,-0.0492592491209507
1678956296.1480312,152,1678956296,141535000,,-0.00036454893415793777,-0.0015017802361398935,0.0005682390765286982,-0.39787065982818604,-0.009895561262965202,0.016532478854060173,0.9172391891479492,-0.0024161117617040873,0.003863850375637412,0.030080053955316544,-0.016510551795363426,-0.027248041704297066,-0.0492592491209507
1678956296.1507812,153,1678956296,147601000,,-0.00018162147898692638,-0.000770167971495539,-0.0004932445008307695,-0.39760181307792664,-0.009848909452557564,0.01634206436574459,0.9173596501350403,-0.002113093389198184,0.013389377854764462,0.010540632531046867,0.052787840366363525,0.031935032457113266,0.03474658727645874
1678956296.153362,154,1678956296,147601000,,-0.00018162147898692638,-0.000770167971495539,-0.0004932445008307695,-0.39760181307792664,-0.009848909452557564,0.01634206436574459,0.9173596501350403,-0.002113093389198184,0.013389377854764462,0.010540632531046867,0.052787840366363525,0.031935032457113266,0.03474658727645874
1678956296.1566257,155,1678956296,147601000,,-0.00018162147898692638,-0.000770167971495539,-0.0004932445008307695,-0.39760181307792664,-0.009848909452557564,0.01634206436574459,0.9173596501350403,-0.002113093389198184,0.013389377854764462,0.010540632531046867,0.052787840366363525,0.031935032457113266,0.03474658727645874
1678956296.1591108,156,1678956296,155446000,,-0.00019468090613372624,-0.0006606617826037109,-0.0004330103110987693,-0.39765697717666626,-0.009791660122573376,0.016461580991744995,0.917334258556366,-0.0024152130354195833,0.01713402383029461,0.010830025188624859,-0.06866618245840073,0.05419106036424637,0.005701619200408459
1678956296.162931,157,1678956296,155446000,,-0.00019468090613372624,-0.0006606617826037109,-0.0004330103110987693,-0.39765697717666626,-0.009791660122573376,0.016461580991744995,0.917334258556366,-0.0024152130354195833,0.01713402383029461,0.010830025188624859,-0.06866618245840073,0.05419106036424637,0.005701619200408459
1678956296.1663404,158,1678956296,155446000,,-0.00019468090613372624,-0.0006606617826037109,-0.0004330103110987693,-0.39765697717666626,-0.009791660122573376,0.016461580991744995,0.917334258556366,-0.0024152130354195833,0.01713402383029461,0.010830025188624859,-0.06866618245840073,0.05419106036424637,0.005701619200408459
1678956296.1699543,159,1678956296,168135000,,-0.00021629768889397383,-0.0003614862507674843,-0.00026722150505520403,-0.39799487590789795,-0.009937815368175507,0.016210485249757767,0.9171905517578125,-0.0006950084934942424,0.022961478680372238,0.007902700453996658,-0.05038445070385933,-0.046124886721372604,0.02250189147889614
1678956296.1728563,160,1678956296,168135000,,-0.00021629768889397383,-0.0003614862507674843,-0.00026722150505520403,-0.39799487590789795,-0.009937815368175507,0.016210485249757767,0.9171905517578125,-0.0006950084934942424,0.022961478680372238,0.007902700453996658,-0.05038445070385933,-0.046124886721372604,0.02250189147889614
1678956296.1754673,161,1678956296,168135000,,-0.00021629768889397383,-0.0003614862507674843,-0.00026722150505520403,-0.39799487590789795,-0.009937815368175507,0.016210485249757767,0.9171905517578125,-0.0006950084934942424,0.022961478680372238,0.007902700453996658,-0.05038445070385933,-0.046124886721372604,0.02250189147889614
1678956296.1778955,162,1678956296,176764000,,-0.0002189476799685508,-0.00022603965771850199,-0.00022768981580156833,-0.3981591463088989,-0.00991598330438137,0.01627972163259983,0.9171183109283447,-0.000147558021126315,0.025662755593657494,0.006721119396388531,0.019548781216144562,0.08875191956758499,0.011556455865502357
1678956296.1798682,163,1678956296,176764000,,-0.0002189476799685508,-0.00022603965771850199,-0.00022768981580156833,-0.3981591463088989,-0.00991598330438137,0.01627972163259983,0.9171183109283447,-0.000147558021126315,0.025662755593657494,0.006721119396388531,0.019548781216144562,0.08875191956758499,0.011556455865502357
1678956296.1825435,164,1678956296,176764000,,-0.0002189476799685508,-0.00022603965771850199,-0.00022768981580156833,-0.3981591463088989,-0.00991598330438137,0.01627972163259983,0.9171183109283447,-0.000147558021126315,0.025662755593657494,0.006721119396388531,0.019548781216144562,0.08875191956758499,0.011556455865502357
1678956296.184494,165,1678956296,176764000,,-0.0002189476799685508,-0.00022603965771850199,-0.00022768981580156833,-0.3981591463088989,-0.00991598330438137,0.01627972163259983,0.9171183109283447,-0.000147558021126315,0.025662755593657494,0.006721119396388531,0.019548781216144562,0.08875191956758499,0.011556455865502357
1678956296.1870804,166,1678956296,185244000,,-0.00021977337019052356,-7.65566510381177e-05,-0.00013395659334491938,-0.3979344964027405,-0.009689375758171082,0.01639646477997303,0.9172161817550659,0.00039118461427278817,0.0284620001912117,0.008369856514036655,0.09023935347795486,0.06947273015975952,0.012407531961798668
1678956296.189221,167,1678956296,185244000,,-0.00021977337019052356,-7.65566510381177e-05,-0.00013395659334491938,-0.3979344964027405,-0.009689375758171082,0.01639646477997303,0.9172161817550659,0.00039118461427278817,0.0284620001912117,0.008369856514036655,0.09023935347795486,0.06947273015975952,0.012407531961798668
1678956296.1919806,168,1678956296,190823000,,-0.00016100073116831481,-0.0009325122809968889,-0.0013610858004540205,-0.39788898825645447,-0.009744799695909023,0.01630289852619171,0.9172369837760925,-0.0016520438948646188,0.011031492613255978,-0.00537652475759387,-0.13014712929725647,-0.05052918940782547,-0.05401186645030975
1678956296.193638,169,1678956296,190823000,,-0.00016100073116831481,-0.0009325122809968889,-0.0013610858004540205,-0.39788898825645447,-0.009744799695909023,0.01630289852619171,0.9172369837760925,-0.0016520438948646188,0.011031492613255978,-0.00537652475759387,-0.13014712929725647,-0.05052918940782547,-0.05401186645030975
1678956296.1964679,170,1678956296,190823000,,-0.00016100073116831481,-0.0009325122809968889,-0.0013610858004540205,-0.39788898825645447,-0.009744799695909023,0.01630289852619171,0.9172369837760925,-0.0016520438948646188,0.011031492613255978,-0.00537652475759387,-0.13014712929725647,-0.05052918940782547,-0.05401186645030975
1678956296.1991105,171,1678956296,190823000,,-0.00016100073116831481,-0.0009325122809968889,-0.0013610858004540205,-0.39788898825645447,-0.009744799695909023,0.01630289852619171,0.9172369837760925,-0.0016520438948646188,0.011031492613255978,-0.00537652475759387,-0.13014712929725647,-0.05052918940782547,-0.05401186645030975
1678956296.201222,172,1678956296,190823000,,-0.00016100073116831481,-0.0009325122809968889,-0.0013610858004540205,-0.39788898825645447,-0.009744799695909023,0.01630289852619171,0.9172369837760925,-0.0016520438948646188,0.011031492613255978,-0.00537652475759387,-0.13014712929725647,-0.05052918940782547,-0.05401186645030975
1678956296.2034686,173,1678956296,201793000,,-0.00011274325515842065,-0.0009262511157430708,-0.0015907416818663478,-0.39846158027648926,-0.009857668541371822,0.01604929193854332,0.9169915914535522,0.004394985735416412,-0.0023741042241454124,-0.019615016877651215,-0.03878270089626312,0.04716473072767258,0.003587481565773487
1678956296.2062666,174,1678956296,201793000,,-0.00011274325515842065,-0.0009262511157430708,-0.0015907416818663478,-0.39846158027648926,-0.009857668541371822,0.01604929193854332,0.9169915914535522,0.004394985735416412,-0.0023741042241454124,-0.019615016877651215,-0.03878270089626312,0.04716473072767258,0.003587481565773487
1678956296.2091691,175,1678956296,201793000,,-0.00011274325515842065,-0.0009262511157430708,-0.0015907416818663478,-0.39846158027648926,-0.009857668541371822,0.01604929193854332,0.9169915914535522,0.004394985735416412,-0.0023741042241454124,-0.019615016877651215,-0.03878270089626312,0.04716473072767258,0.003587481565773487
1678956296.2113895,176,1678956296,210440000,,-8.758102194406092e-05,-0.0009411760838702321,-0.0016916985623538494,-0.3983982801437378,-0.00970829650759697,0.016095807775855064,0.9170199036598206,0.005742770154029131,-0.004899352788925171,-0.0226217582821846,-0.006187091115862131,0.058695293962955475,-0.010468225926160812
1678956296.2141943,177,1678956296,210440000,,-8.758102194406092e-05,-0.0009411760838702321,-0.0016916985623538494,-0.3983982801437378,-0.00970829650759697,0.016095807775855064,0.9170199036598206,0.005742770154029131,-0.004899352788925171,-0.0226217582821846,-0.006187091115862131,0.058695293962955475,-0.010468225926160812
1678956296.2173326,178,1678956296,214716000,,-7.609908061567694e-05,-0.0008695871219970286,-0.0017796341562643647,-0.39848098158836365,-0.009624539874494076,0.016088858246803284,0.9169849157333374,0.004151046741753817,0.006673639174550772,-0.02094418928027153,0.0015265282709151506,-0.008902344852685928,-0.02675447426736355
1678956296.2201986,179,1678956296,214716000,,-7.609908061567694e-05,-0.0008695871219970286,-0.0017796341562643647,-0.39848098158836365,-0.009624539874494076,0.016088858246803284,0.9169849157333374,0.004151046741753817,0.006673639174550772,-0.02094418928027153,0.0015265282709151506,-0.008902344852685928,-0.02675447426736355
1678956296.2221096,180,1678956296,214716000,,-7.609908061567694e-05,-0.0008695871219970286,-0.0017796341562643647,-0.39848098158836365,-0.009624539874494076,0.016088858246803284,0.9169849157333374,0.004151046741753817,0.006673639174550772,-0.02094418928027153,0.0015265282709151506,-0.008902344852685928,-0.02675447426736355
1678956296.224981,181,1678956296,214716000,,-7.609908061567694e-05,-0.0008695871219970286,-0.0017796341562643647,-0.39848098158836365,-0.009624539874494076,0.016088858246803284,0.9169849157333374,0.004151046741753817,0.006673639174550772,-0.02094418928027153,0.0015265282709151506,-0.008902344852685928,-0.02675447426736355
1678956296.2269163,182,1678956296,214716000,,-7.609908061567694e-05,-0.0008695871219970286,-0.0017796341562643647,-0.39848098158836365,-0.009624539874494076,0.016088858246803284,0.9169849157333374,0.004151046741753817,0.006673639174550772,-0.02094418928027153,0.0015265282709151506,-0.008902344852685928,-0.02675447426736355
1678956296.2327583,183,1678956296,228150000,,0.00027810229221358895,-0.0015729541191831231,-0.0017387259285897017,-0.39834272861480713,-0.009537502191960812,0.01618315279483795,0.9170443415641785,0.0078553706407547,-0.0032096717040985823,-0.023301389068365097,0.06570135056972504,-0.048944517970085144,-0.02067507430911064
1678956296.2373176,184,1678956296,231974000,,0.0003046595666091889,-0.0015808527823537588,-0.0017637794371694326,-0.39889007806777954,-0.009646659716963768,0.016112279146909714,0.9168063998222351,0.0021841921843588352,0.0023229855578392744,-0.0029400293715298176,-0.22125940024852753,-0.0019020249601453543,0.0010324481409043074
1678956296.24157,185,1678956296,236323000,,0.0003106639487668872,-0.0015544124180451035,-0.001763734151609242,-0.39920565485954285,-0.009604430757462978,0.016081158071756363,0.9166700839996338,0.0003585719969123602,0.0057633183896541595,0.002520760288462043,-0.0676441490650177,0.01982112228870392,-0.054494716227054596
1678956296.2437212,186,1678956296,242492000,,0.0003327061131130904,-0.00142618827521801,-0.0017691690009087324,-0.39937809109687805,-0.009545582346618176,0.01576521433889866,0.9166010618209839,0.002102759899571538,0.015322870574891567,-0.00012103714107070118,0.03785112872719765,-0.059701986610889435,-0.03821117803454399
