Time,header.seq,header.stamp.secs,header.stamp.nsecs,header.frame_id,pose.position.x,pose.position.y,pose.position.z,pose.orientation.x,pose.orientation.y,pose.orientation.z,pose.orientation.w,twist.linear.x,twist.linear.y,twist.linear.z,twist.angular.x,twist.angular.y,twist.angular.z
1678956295.6363912,1,1678956295,441857000,,-0.0005580921424552798,-0.00022247529705055058,-0.0005994352977722883,-0.3888402283191681,-0.0004409379616845399,-0.0009789561154320836,0.9213046431541443,-0.007495367433875799,0.05218371003866196,-0.03491850942373276,0.01820163056254387,0.04188857972621918,0.06408913433551788
1678956295.6366022,2,1678956295,549505000,,-0.0006814473308622837,-0.0005211099633015692,-0.00017194678366649896,-0.38881564140319824,-0.0007941452204249799,-0.0008176591363735497,0.9213148951530457,-0.00896963570266962,-0.0055815912783145905,-0.0052210669964551926,0.02311510592699051,-0.01568695530295372,0.04780959710478783
1678956295.659047,3,1678956295,650950000,,-0.0004560031520668417,-0.00010954905155813321,0.0005548882181756198,-0.3886626958847046,-0.0009285455453209579,-0.0008666909416206181,0.9213793277740479,-0.0010323248570784926,0.00021658511832356453,0.004124379716813564,-0.05290062725543976,0.009464522823691368,0.007934465073049068
1678956295.66374,4,1678956295,650950000,,-0.0004560031520668417,-0.00010954905155813321,0.0005548882181756198,-0.3886626958847046,-0.0009285455453209579,-0.0008666909416206181,0.9213793277740479,-0.0010323248570784926,0.00021658511832356453,0.004124379716813564,-0.05290062725543976,0.009464522823691368,0.007934465073049068
1678956295.6688643,5,1678956295,666469000,,-0.00045294329174794257,7.491113501600921e-05,0.0006226063705980778,-0.3886996805667877,-0.0009096027351915836,-0.0008394593605771661,0.9213637113571167,0.0008001287351362407,0.01862616278231144,0.006653803400695324,0.08757495880126953,-0.008670699782669544,0.005264569539576769
1678956295.6707778,6,1678956295,666469000,,-0.00045294329174794257,7.491113501600921e-05,0.0006226063705980778,-0.3886996805667877,-0.0009096027351915836,-0.0008394593605771661,0.9213637113571167,0.0008001287351362407,0.01862616278231144,0.006653803400695324,0.08757495880126953,-0.008670699782669544,0.005264569539576769
1678956295.674361,7,1678956295,666469000,,-0.00045294329174794257,7.491113501600921e-05,0.0006226063705980778,-0.3886996805667877,-0.0009096027351915836,-0.0008394593605771661,0.9213637113571167,0.0008001287351362407,0.01862616278231144,0.006653803400695324,0.08757495880126953,-0.008670699782669544,0.005264569539576769
1678956295.6768663,8,1678956295,674781000,,-0.0004395806754473597,0.00031982772634364665,0.0006973356939852238,-0.38850918412208557,-0.0010314539540559053,-0.0008060057298280299,0.9214439392089844,0.0018771206960082054,0.03006834164261818,0.008427277207374573,-0.05182436481118202,0.01909397728741169,0.015989812090992928
1678956295.6805816,9,1678956295,674781000,,-0.0004395806754473597,0.00031982772634364665,0.0006973356939852238,-0.38850918412208557,-0.0010314539540559053,-0.0008060057298280299,0.9214439392089844,0.0018771206960082054,0.03006834164261818,0.008427277207374573,-0.05182436481118202,0.01909397728741169,0.015989812090992928
1678956295.685523,10,1678956295,681002000,,-0.0004952151793986559,-0.0002943760482594371,0.00033268597326241434,-0.38852658867836,-0.0010382543550804257,-0.0007656494854018092,0.921436607837677,-0.0039989338256418705,-0.02439337968826294,-0.009326735511422157,0.09872061014175415,0.044102080166339874,-0.014902973547577858
1678956295.6920054,11,1678956295,681002000,,-0.0004952151793986559,-0.0002943760482594371,0.00033268597326241434,-0.38852658867836,-0.0010382543550804257,-0.0007656494854018092,0.921436607837677,-0.0039989338256418705,-0.02439337968826294,-0.009326735511422157,0.09872061014175415,0.044102080166339874,-0.014902973547577858
1678956295.6939142,12,1678956295,692914000,,-0.0005178682040423155,-0.00045093282824382186,0.0002787406265269965,-0.38822314143180847,-0.0009516718564555049,-0.000768624187912792,0.9215645790100098,-0.005008708219975233,-0.033534321933984756,-0.011959068477153778,0.05393225699663162,0.018385466188192368,0.007710888050496578
1678956295.6965287,13,1678956295,692914000,,-0.0005178682040423155,-0.00045093282824382186,0.0002787406265269965,-0.38822314143180847,-0.0009516718564555049,-0.000768624187912792,0.9215645790100098,-0.005008708219975233,-0.033534321933984756,-0.011959068477153778,0.05393225699663162,0.018385466188192368,0.007710888050496578
1678956295.6986525,14,1678956295,692914000,,-0.0005178682040423155,-0.00045093282824382186,0.0002787406265269965,-0.38822314143180847,-0.0009516718564555049,-0.000768624187912792,0.9215645790100098,-0.005008708219975233,-0.033534321933984756,-0.011959068477153778,0.05393225699663162,0.018385466188192368,0.007710888050496578
1678956295.7012143,15,1678956295,698993000,,-0.0005451838369481266,-0.0005193314282223582,0.0003251158632338047,-0.3887801468372345,-0.0010765421902760863,-0.0007956756162457168,0.9213295578956604,-0.003433254547417164,-0.011574004776775837,0.0030337427742779255,-0.04486547037959099,-0.06347853690385818,-0.010799197480082512
1678956295.7086005,16,1678956295,700858000,,-0.0005618436262011528,-0.0005654051201418042,0.00035601574927568436,-0.38860103487968445,-0.0011572454823181033,-0.0008657428552396595,0.9214049577713013,-0.003314825240522623,-0.007441644091159105,0.007805131375789642,0.1431294083595276,0.007064560428261757,-0.02174670435488224
1678956295.7109644,17,1678956295,707284000,,-0.0005779590574093163,-0.0005905058933421969,0.0004143813857808709,-0.38849708437919617,-0.0010211337357759476,-0.0008820474031381309,0.9214490056037903,-0.0031975782476365566,-0.0031819588039070368,0.012833230197429657,-0.1466737538576126,0.06391973793506622,-0.02508266270160675
1678956295.7147624,18,1678956295,707284000,,-0.0005779590574093163,-0.0005905058933421969,0.0004143813857808709,-0.38849708437919617,-0.0010211337357759476,-0.0008820474031381309,0.9214490056037903,-0.0031975782476365566,-0.0031819588039070368,0.012833230197429657,-0.1466737538576126,0.06391973793506622,-0.02508266270160675
1678956295.718689,19,1678956295,715025000,,-0.0004487274563871324,-0.0002561604487709701,9.635707829147577e-05,-0.38848716020584106,-0.0010376188438385725,-0.000884553708601743,0.9214531183242798,0.0001054537933669053,-0.006730802822858095,-0.021311692893505096,0.11216092854738235,-0.036967676132917404,-0.013485651463270187
1678956295.7206101,20,1678956295,715025000,,-0.0004487274563871324,-0.0002561604487709701,9.635707829147577e-05,-0.38848716020584106,-0.0010376188438385725,-0.000884553708601743,0.9214531183242798,0.0001054537933669053,-0.006730802822858095,-0.021311692893505096,0.11216092854738235,-0.036967676132917404,-0.013485651463270187
1678956295.72672,21,1678956295,723169000,,-0.0004481290525291115,-0.0002955378731712699,-2.1121279132785276e-05,-0.3884238004684448,-0.0010706294560804963,-0.0009246519184671342,0.9214797616004944,0.00016824495105538517,-0.008610570803284645,-0.025506582111120224,-0.03124086931347847,-0.016064897179603577,0.021472373977303505
1678956295.7374349,22,1678956295,723169000,,-0.0004481290525291115,-0.0002955378731712699,-2.1121279132785276e-05,-0.3884238004684448,-0.0010706294560804963,-0.0009246519184671342,0.9214797616004944,0.00016824495105538517,-0.008610570803284645,-0.025506582111120224,-0.03124086931347847,-0.016064897179603577,0.021472373977303505
1678956295.74044,23,1678956295,735286000,,-0.00048327792319469154,-0.0003685384872369468,-4.3773106881417334e-05,-0.38866057991981506,-0.0010222293203696609,-0.0008168506319634616,0.9213801026344299,-0.002561548026278615,-0.0066839465871453285,-0.004044075962156057,0.0850938931107521,-0.016517629846930504,-0.006594039965420961
1678956295.746898,24,1678956295,741616000,,-0.00048595451517030597,-0.00034634931944310665,-7.390926475636661e-05,-0.3885577917098999,-0.0011009557638317347,-0.0008621902670711279,0.9214233756065369,-0.0014457771321758628,0.0007930642459541559,-0.004685725085437298,-0.021897468715906143,-0.039492417126894,-0.00493041705340147
1678956295.7523434,25,1678956295,748315000,,-0.0004928476409986615,-0.0003358674293849617,-9.493745892541483e-05,-0.38866889476776123,-0.001147557981312275,-0.0009157140739262104,0.9213763475418091,-0.001306051854044199,0.0036510187201201916,-0.0034865683410316706,-0.025023076683282852,-0.008500834926962852,-0.024291958659887314
1678956295.7541654,26,1678956295,748315000,,-0.0004928476409986615,-0.0003358674293849617,-9.493745892541483e-05,-0.38866889476776123,-0.001147557981312275,-0.0009157140739262104,0.9213763475418091,-0.001306051854044199,0.0036510187201201916,-0.0034865683410316706,-0.025023076683282852,-0.008500834926962852,-0.024291958659887314
1678956295.7580862,27,1678956295,748315000,,-0.0004928476409986615,-0.0003358674293849617,-9.493745892541483e-05,-0.38866889476776123,-0.001147557981312275,-0.0009157140739262104,0.9213763475418091,-0.001306051854044199,0.0036510187201201916,-0.0034865683410316706,-0.025023076683282852,-0.008500834926962852,-0.024291958659887314
1678956295.7603946,28,1678956295,748315000,,-0.0004928476409986615,-0.0003358674293849617,-9.493745892541483e-05,-0.38866889476776123,-0.001147557981312275,-0.0009157140739262104,0.9213763475418091,-0.001306051854044199,0.0036510187201201916,-0.0034865683410316706,-0.025023076683282852,-0.008500834926962852,-0.024291958659887314
1678956295.7660751,29,1678956295,762642000,,-0.0004932617302983999,-0.000295060541247949,0.0005128055345267057,-0.3887600004673004,-0.0011001268867403269,-0.0009961894247680902,0.921337902545929,4.637963866116479e-05,0.00527561828494072,0.009242678992450237,0.04715941101312637,-0.006074202246963978,0.043813806027173996
1678956295.7707055,30,1678956295,765359000,,-0.0004919150378555059,-0.00022862745390739292,0.0005891480250284076,-0.3886377513408661,-0.0011842049425467849,-0.0009159318869933486,0.9213894605636597,0.00041983259143307805,0.00911061279475689,0.012063818983733654,-0.009536251425743103,-0.013628346845507622,0.019236883148550987
1678956295.7727978,31,1678956295,770340000,,-0.00048406372661702335,-0.00011729117250069976,0.0007210404728539288,-0.3886621594429016,-0.001117554260417819,-0.0009608427644707263,0.9213791489601135,0.0011486874427646399,0.01320196408778429,0.01484284270554781,0.083625927567482,0.0047996751964092255,0.015583008527755737
1678956295.7757132,32,1678956295,770340000,,-0.00048406372661702335,-0.00011729117250069976,0.0007210404728539288,-0.3886621594429016,-0.001117554260417819,-0.0009608427644707263,0.9213791489601135,0.0011486874427646399,0.01320196408778429,0.01484284270554781,0.083625927567482,0.0047996751964092255,0.015583008527755737
1678956295.7785027,33,1678956295,770340000,,-0.00048406372661702335,-0.00011729117250069976,0.0007210404728539288,-0.3886621594429016,-0.001117554260417819,-0.0009608427644707263,0.9213791489601135,0.0011486874427646399,0.01320196408778429,0.01484284270554781,0.083625927567482,0.0047996751964092255,0.015583008527755737
1678956295.7806942,34,1678956295,777660000,,-0.0005049695027992129,-7.494619057979435e-05,0.0007272035581991076,-0.38856804370880127,-0.0011470344616100192,-0.0008911973563954234,0.9214189648628235,-0.0016691930359229445,0.014053815975785255,0.008749956265091896,-0.054767806082963943,0.0047029610723257065,0.018811743706464767
1678956295.7867024,35,1678956295,783123000,,-0.0005103024304844439,-0.0003687999851536006,0.00028929271502420306,-0.38896164298057556,-0.001240256824530661,-0.0008841636008583009,0.9212527275085449,-0.0032477108761668205,-0.0064386953599750996,-0.00993455108255148,-0.013227373361587524,-0.02395877055823803,-0.002306457608938217
1678956295.787945,36,1678956295,783123000,,-0.0005103024304844439,-0.0003687999851536006,0.00028929271502420306,-0.38896164298057556,-0.001240256824530661,-0.0008841636008583009,0.9212527275085449,-0.0032477108761668205,-0.0064386953599750996,-0.00993455108255148,-0.013227373361587524,-0.02395877055823803,-0.002306457608938217
1678956295.7911522,37,1678956295,783123000,,-0.0005103024304844439,-0.0003687999851536006,0.00028929271502420306,-0.38896164298057556,-0.001240256824530661,-0.0008841636008583009,0.9212527275085449,-0.0032477108761668205,-0.0064386953599750996,-0.00993455108255148,-0.013227373361587524,-0.02395877055823803,-0.002306457608938217
1678956295.79382,38,1678956295,783123000,,-0.0005103024304844439,-0.0003687999851536006,0.00028929271502420306,-0.38896164298057556,-0.001240256824530661,-0.0008841636008583009,0.9212527275085449,-0.0032477108761668205,-0.0064386953599750996,-0.00993455108255148,-0.013227373361587524,-0.02395877055823803,-0.002306457608938217
1678956295.796414,39,1678956295,783123000,,-0.0005103024304844439,-0.0003687999851536006,0.00028929271502420306,-0.38896164298057556,-0.001240256824530661,-0.0008841636008583009,0.9212527275085449,-0.0032477108761668205,-0.0064386953599750996,-0.00993455108255148,-0.013227373361587524,-0.02395877055823803,-0.002306457608938217
1678956295.7986648,40,1678956295,798204000,,-0.0005288415122777224,-0.00040811923099681735,0.0002129774948116392,-0.3887244462966919,-0.0012979389866814017,-0.0009082089527510107,0.9213526844978333,-0.003972894977778196,-0.007998952642083168,-0.013588430359959602,0.1798294335603714,0.005512547679245472,-0.0019457228481769562
1678956295.8022904,41,1678956295,800334000,,-0.0005890506436116993,-0.0006428698543459177,1.9658386008813977e-05,-0.38902992010116577,-0.0012328551383689046,-0.0007515136967413127,0.9212239980697632,-0.00503176124766469,-0.018015185371041298,-0.016506927087903023,-0.0502508170902729,-0.036386772990226746,0.004165627062320709
1678956295.8039088,42,1678956295,800334000,,-0.0005890506436116993,-0.0006428698543459177,1.9658386008813977e-05,-0.38902992010116577,-0.0012328551383689046,-0.0007515136967413127,0.9212239980697632,-0.00503176124766469,-0.018015185371041298,-0.016506927087903023,-0.0502508170902729,-0.036386772990226746,0.004165627062320709
1678956295.8128204,43,1678956295,800334000,,-0.0005890506436116993,-0.0006428698543459177,1.9658386008813977e-05,-0.38902992010116577,-0.0012328551383689046,-0.0007515136967413127,0.9212239980697632,-0.00503176124766469,-0.018015185371041298,-0.016506927087903023,-0.0502508170902729,-0.036386772990226746,0.004165627062320709
1678956295.8147998,44,1678956295,813014000,,-0.0006058925646357238,-0.0006921756430529058,-9.65345388976857e-05,-0.3890519440174103,-0.0012992537813261151,-0.000819869339466095,0.9212145209312439,-0.004168664570897818,-0.013659665361046791,-0.02245926670730114,0.01209182571619749,-0.029851993545889854,-0.028481334447860718
1678956295.8172715,45,1678956295,814040000,,-0.0004963202518410981,-4.7462151997024193e-05,0.0001506894186604768,-0.3885267674922943,-0.001308825914748013,-0.0009653292363509536,0.9214360117912292,-0.0008097823592834175,0.01208705548197031,-0.015998536720871925,-0.06314140558242798,0.017253456637263298,-0.008332068100571632
1678956295.8199372,46,1678956295,814040000,,-0.0004963202518410981,-4.7462151997024193e-05,0.0001506894186604768,-0.3885267674922943,-0.001308825914748013,-0.0009653292363509536,0.9214360117912292,-0.0008097823592834175,0.01208705548197031,-0.015998536720871925,-0.06314140558242798,0.017253456637263298,-0.008332068100571632
1678956295.8229537,47,1678956295,814040000,,-0.0004963202518410981,-4.7462151997024193e-05,0.0001506894186604768,-0.3885267674922943,-0.001308825914748013,-0.0009653292363509536,0.9214360117912292,-0.0008097823592834175,0.01208705548197031,-0.015998536720871925,-0.06314140558242798,0.017253456637263298,-0.008332068100571632
1678956295.8252056,48,1678956295,814040000,,-0.0004963202518410981,-4.7462151997024193e-05,0.0001506894186604768,-0.3885267674922943,-0.001308825914748013,-0.0009653292363509536,0.9214360117912292,-0.0008097823592834175,0.01208705548197031,-0.015998536720871925,-0.06314140558242798,0.017253456637263298,-0.008332068100571632
1678956295.8275049,49,1678956295,814040000,,-0.0004963202518410981,-4.7462151997024193e-05,0.0001506894186604768,-0.3885267674922943,-0.001308825914748013,-0.0009653292363509536,0.9214360117912292,-0.0008097823592834175,0.01208705548197031,-0.015998536720871925,-0.06314140558242798,0.017253456637263298,-0.008332068100571632
1678956295.830154,50,1678956295,814040000,,-0.0004963202518410981,-4.7462151997024193e-05,0.0001506894186604768,-0.3885267674922943,-0.001308825914748013,-0.0009653292363509536,0.9214360117912292,-0.0008097823592834175,0.01208705548197031,-0.015998536720871925,-0.06314140558242798,0.017253456637263298,-0.008332068100571632
1678956295.8338935,51,1678956295,831321000,,-0.00047565862769261,4.1696148400660604e-05,0.00023809932463336736,-0.3888901472091675,-0.0012893504463136196,-0.0009346040897071362,0.9212827086448669,0.001958915265277028,0.0168785210698843,0.00042364478576928377,-0.11639213562011719,-0.012292131781578064,0.019397789612412453
1678956295.8366182,52,1678956295,833022000,,-0.0004468973202165216,0.0002502281276974827,0.00028081529308110476,-0.3887638747692108,-0.00144685129635036,-0.0009379725670441985,0.9213358759880066,0.0037976051680743694,0.02370799519121647,0.0074269138276577,0.021684421226382256,0.004490634426474571,0.01252836175262928
1678956295.8403301,53,1678956295,833022000,,-0.0004468973202165216,0.0002502281276974827,0.00028081529308110476,-0.3887638747692108,-0.00144685129635036,-0.0009379725670441985,0.9213358759880066,0.0037976051680743694,0.02370799519121647,0.0074269138276577,0.021684421226382256,0.004490634426474571,0.01252836175262928
1678956295.847726,54,1678956295,840222000,,-0.0004874474252574146,0.0003143820504192263,0.00023810753191355616,-0.38877072930336,-0.0014082412235438824,-0.0008680714527145028,0.9213330149650574,-0.004137004725635052,0.017755920067429543,-0.0011915953364223242,0.004774647764861584,0.03287069499492645,0.020573802292346954
1678956295.8510668,55,1678956295,840222000,,-0.0004874474252574146,0.0003143820504192263,0.00023810753191355616,-0.38877072930336,-0.0014082412235438824,-0.0008680714527145028,0.9213330149650574,-0.004137004725635052,0.017755920067429543,-0.0011915953364223242,0.004774647764861584,0.03287069499492645,0.020573802292346954
1678956295.8536441,56,1678956295,849522000,,-0.0005434324266389012,0.000610430957749486,0.0002711242705117911,-0.3888590931892395,-0.0013434899738058448,-0.0009222805965691805,0.9212957620620728,-0.002726729027926922,0.02213568240404129,0.006303025409579277,-0.08128973841667175,-0.07172103226184845,0.017262477427721024
1678956295.8577032,57,1678956295,854814000,,-0.0006251477752812207,-0.0005181955057196319,0.0004406592051964253,-0.3891221880912781,-0.0014215897535905242,-0.0008819794747978449,0.9211846590042114,-0.0018585913348942995,-0.007048571016639471,0.007643725723028183,0.08538466691970825,-0.009511252865195274,0.014809586107730865
1678956295.859015,58,1678956295,854814000,,-0.0006251477752812207,-0.0005181955057196319,0.0004406592051964253,-0.3891221880912781,-0.0014215897535905242,-0.0008819794747978449,0.9211846590042114,-0.0018585913348942995,-0.007048571016639471,0.007643725723028183,0.08538466691970825,-0.009511252865195274,0.014809586107730865
1678956295.8616714,59,1678956295,854814000,,-0.0006251477752812207,-0.0005181955057196319,0.0004406592051964253,-0.3891221880912781,-0.0014215897535905242,-0.0008819794747978449,0.9211846590042114,-0.0018585913348942995,-0.007048571016639471,0.007643725723028183,0.08538466691970825,-0.009511252865195274,0.014809586107730865
1678956295.8638759,60,1678956295,854814000,,-0.0006251477752812207,-0.0005181955057196319,0.0004406592051964253,-0.3891221880912781,-0.0014215897535905242,-0.0008819794747978449,0.9211846590042114,-0.0018585913348942995,-0.007048571016639471,0.007643725723028183,0.08538466691970825,-0.009511252865195274,0.014809586107730865
1678956295.8661647,61,1678956295,854814000,,-0.0006251477752812207,-0.0005181955057196319,0.0004406592051964253,-0.3891221880912781,-0.0014215897535905242,-0.0008819794747978449,0.9211846590042114,-0.0018585913348942995,-0.007048571016639471,0.007643725723028183,0.08538466691970825,-0.009511252865195274,0.014809586107730865
1678956295.8687346,62,1678956295,867875000,,-0.0006846103351563215,-0.0005452909972518682,0.00041745073394849896,-0.3892313539981842,-0.0012446290347725153,-0.0007055046153254807,0.9211389422416687,-0.005671469494700432,-0.001992640784010291,-0.0027930852957069874,-0.011440872214734554,0.008280307054519653,0.03822389990091324
1678956295.8716547,63,1678956295,867875000,,-0.0006846103351563215,-0.0005452909972518682,0.00041745073394849896,-0.3892313539981842,-0.0012446290347725153,-0.0007055046153254807,0.9211389422416687,-0.005671469494700432,-0.001992640784010291,-0.0027930852957069874,-0.011440872214734554,0.008280307054519653,0.03822389990091324
1678956295.873794,64,1678956295,867875000,,-0.0006846103351563215,-0.0005452909972518682,0.00041745073394849896,-0.3892313539981842,-0.0012446290347725153,-0.0007055046153254807,0.9211389422416687,-0.005671469494700432,-0.001992640784010291,-0.0027930852957069874,-0.011440872214734554,0.008280307054519653,0.03822389990091324
1678956295.8760118,65,1678956295,875234000,,-0.000715231173671782,-0.0005377869820222259,0.00042062054853886366,-0.3889986574649811,-0.001304224249906838,-0.0006681018276140094,0.9212372303009033,-0.00657951645553112,0.0007052287692204118,-0.003941504750400782,0.170258566737175,-0.011250538751482964,-0.0076302168890833855
1678956295.8786,66,1678956295,875234000,,-0.000715231173671782,-0.0005377869820222259,0.00042062054853886366,-0.3889986574649811,-0.001304224249906838,-0.0006681018276140094,0.9212372303009033,-0.00657951645553112,0.0007052287692204118,-0.003941504750400782,0.170258566737175,-0.011250538751482964,-0.0076302168890833855
1678956295.8825657,67,1678956295,875234000,,-0.000715231173671782,-0.0005377869820222259,0.00042062054853886366,-0.3889986574649811,-0.001304224249906838,-0.0006681018276140094,0.9212372303009033,-0.00657951645553112,0.0007052287692204118,-0.003941504750400782,0.170258566737175,-0.011250538751482964,-0.0076302168890833855
1678956295.8855648,68,1678956295,875234000,,-0.000715231173671782,-0.0005377869820222259,0.00042062054853886366,-0.3889986574649811,-0.001304224249906838,-0.0006681018276140094,0.9212372303009033,-0.00657951645553112,0.0007052287692204118,-0.003941504750400782,0.170258566737175,-0.011250538751482964,-0.0076302168890833855
1678956295.8899922,69,1678956295,875234000,,-0.000715231173671782,-0.0005377869820222259,0.00042062054853886366,-0.3889986574649811,-0.001304224249906838,-0.0006681018276140094,0.9212372303009033,-0.00657951645553112,0.0007052287692204118,-0.003941504750400782,0.170258566737175,-0.011250538751482964,-0.0076302168890833855
1678956295.8914714,70,1678956295,875234000,,-0.000715231173671782,-0.0005377869820222259,0.00042062054853886366,-0.3889986574649811,-0.001304224249906838,-0.0006681018276140094,0.9212372303009033,-0.00657951645553112,0.0007052287692204118,-0.003941504750400782,0.170258566737175,-0.011250538751482964,-0.0076302168890833855
1678956295.8960063,71,1678956295,875234000,,-0.000715231173671782,-0.0005377869820222259,0.00042062054853886366,-0.3889986574649811,-0.001304224249906838,-0.0006681018276140094,0.9212372303009033,-0.00657951645553112,0.0007052287692204118,-0.003941504750400782,0.170258566737175,-0.011250538751482964,-0.0076302168890833855
1678956295.8982887,72,1678956295,875234000,,-0.000715231173671782,-0.0005377869820222259,0.00042062054853886366,-0.3889986574649811,-0.001304224249906838,-0.0006681018276140094,0.9212372303009033,-0.00657951645553112,0.0007052287692204118,-0.003941504750400782,0.170258566737175,-0.011250538751482964,-0.0076302168890833855
1678956295.9012449,73,1678956295,875234000,,-0.000715231173671782,-0.0005377869820222259,0.00042062054853886366,-0.3889986574649811,-0.001304224249906838,-0.0006681018276140094,0.9212372303009033,-0.00657951645553112,0.0007052287692204118,-0.003941504750400782,0.170258566737175,-0.011250538751482964,-0.0076302168890833855
1678956295.903409,74,1678956295,901086000,,-0.00047144078416749835,-0.0007801911560818553,-3.341813135193661e-05,-0.3892853856086731,-0.001328299636952579,-0.0009708595462143421,0.9211157560348511,0.0023471128661185503,-0.024345532059669495,-0.022340748459100723,0.06625885516405106,0.027881169691681862,0.016194269061088562
1678956295.907087,75,1678956295,901086000,,-0.00047144078416749835,-0.0007801911560818553,-3.341813135193661e-05,-0.3892853856086731,-0.001328299636952579,-0.0009708595462143421,0.9211157560348511,0.0023471128661185503,-0.024345532059669495,-0.022340748459100723,0.06625885516405106,0.027881169691681862,0.016194269061088562
1678956295.909357,76,1678956295,901086000,,-0.00047144078416749835,-0.0007801911560818553,-3.341813135193661e-05,-0.3892853856086731,-0.001328299636952579,-0.0009708595462143421,0.9211157560348511,0.0023471128661185503,-0.024345532059669495,-0.022340748459100723,0.06625885516405106,0.027881169691681862,0.016194269061088562
1678956295.9107997,77,1678956295,907931000,,-0.0004602668050210923,-0.0009122868650592864,-0.00016488895926158875,-0.3890746533870697,-0.0012335926294326782,-0.0009268762078136206,0.9212049841880798,0.0020516111981123686,-0.02870776876807213,-0.029412375763058662,0.027877507731318474,0.046583469957113266,-0.021238377317786217
1678956295.9130957,78,1678956295,907931000,,-0.0004602668050210923,-0.0009122868650592864,-0.00016488895926158875,-0.3890746533870697,-0.0012335926294326782,-0.0009268762078136206,0.9212049841880798,0.0020516111981123686,-0.02870776876807213,-0.029412375763058662,0.027877507731318474,0.046583469957113266,-0.021238377317786217
1678956295.9169044,79,1678956295,914514000,,-0.00046639348147436976,-0.00042272001155652106,0.00029565516160801053,-0.3889944553375244,-0.0014024380361661315,-0.0010321810841560364,0.9212385416030884,0.0027798570226877928,0.01732156239449978,0.009773741476237774,-0.03363450989127159,-0.08791983872652054,0.015396099537611008
1678956295.919576,80,1678956295,914514000,,-0.00046639348147436976,-0.00042272001155652106,0.00029565516160801053,-0.3889944553375244,-0.0014024380361661315,-0.0010321810841560364,0.9212385416030884,0.0027798570226877928,0.01732156239449978,0.009773741476237774,-0.03363450989127159,-0.08791983872652054,0.015396099537611008
1678956295.9251707,81,1678956295,914514000,,-0.00046639348147436976,-0.00042272001155652106,0.00029565516160801053,-0.3889944553375244,-0.0014024380361661315,-0.0010321810841560364,0.9212385416030884,0.0027798570226877928,0.01732156239449978,0.009773741476237774,-0.03363450989127159,-0.08791983872652054,0.015396099537611008
1678956295.927592,82,1678956295,914514000,,-0.00046639348147436976,-0.00042272001155652106,0.00029565516160801053,-0.3889944553375244,-0.0014024380361661315,-0.0010321810841560364,0.9212385416030884,0.0027798570226877928,0.01732156239449978,0.009773741476237774,-0.03363450989127159,-0.08791983872652054,0.015396099537611008
1678956295.9292526,83,1678956295,927593000,,-0.00045143108582124114,-0.00031421074527315795,0.00036392445326782763,-0.3890240490436554,-0.0015945376362651587,-0.0010499549098312855,0.9212257266044617,0.0031951272394508123,0.025194212794303894,0.01494457758963108,-0.0033068147022277117,-0.038040339946746826,0.023863717913627625
1678956295.9324155,84,1678956295,927593000,,-0.00045143108582124114,-0.00031421074527315795,0.00036392445326782763,-0.3890240490436554,-0.0015945376362651587,-0.0010499549098312855,0.9212257266044617,0.0031951272394508123,0.025194212794303894,0.01494457758963108,-0.0033068147022277117,-0.038040339946746826,0.023863717913627625
1678956295.9375198,85,1678956295,935035000,,-0.0005582942394539714,-0.0004650939372368157,0.00024873355869203806,-0.38904011249542236,-0.0013791477540507913,-0.0008279191679321229,0.9212194681167603,-0.009885067120194435,-0.012982077896595001,-0.009802721440792084,-0.0279152262955904,-0.00790819525718689,-0.03566049039363861
1678956295.9419565,86,1678956295,935035000,,-0.0005582942394539714,-0.0004650939372368157,0.00024873355869203806,-0.38904011249542236,-0.0013791477540507913,-0.0008279191679321229,0.9212194681167603,-0.009885067120194435,-0.012982077896595001,-0.009802721440792084,-0.0279152262955904,-0.00790819525718689,-0.03566049039363861
1678956295.9431787,87,1678956295,941385000,,-0.0006150088738650084,-0.0005371219012886286,0.00017886070418171585,-0.3888758718967438,-0.001436496153473854,-0.000984592828899622,0.9212885499000549,-0.012869230471551418,-0.018960416316986084,-0.01523855235427618,0.15493328869342804,-0.06379444897174835,-0.041368935257196426
1678956295.947591,88,1678956295,941385000,,-0.0006150088738650084,-0.0005371219012886286,0.00017886070418171585,-0.3888758718967438,-0.001436496153473854,-0.000984592828899622,0.9212885499000549,-0.012869230471551418,-0.018960416316986084,-0.01523855235427618,0.15493328869342804,-0.06379444897174835,-0.041368935257196426
1678956295.9497988,89,1678956295,947683000,,-0.0005882374243810773,-0.0004165919090155512,0.0002468596212565899,-0.38865354657173157,-0.001566793187521398,-0.0010634158970788121,0.9213820695877075,-0.001779115409590304,0.007561789359897375,0.002014592057093978,-0.06500884145498276,-0.05279689282178879,0.03268534690141678
1678956295.9521682,90,1678956295,947683000,,-0.0005882374243810773,-0.0004165919090155512,0.0002468596212565899,-0.38865354657173157,-0.001566793187521398,-0.0010634158970788121,0.9213820695877075,-0.001779115409590304,0.007561789359897375,0.002014592057093978,-0.06500884145498276,-0.05279689282178879,0.03268534690141678
1678956295.954129,91,1678956295,947683000,,-0.0005882374243810773,-0.0004165919090155512,0.0002468596212565899,-0.38865354657173157,-0.001566793187521398,-0.0010634158970788121,0.9213820695877075,-0.001779115409590304,0.007561789359897375,0.002014592057093978,-0.06500884145498276,-0.05279689282178879,0.03268534690141678
1678956295.958636,92,1678956295,947683000,,-0.0005882374243810773,-0.0004165919090155512,0.0002468596212565899,-0.38865354657173157,-0.001566793187521398,-0.0010634158970788121,0.9213820695877075,-0.001779115409590304,0.007561789359897375,0.002014592057093978,-0.06500884145498276,-0.05279689282178879,0.03268534690141678
1678956295.960222,93,1678956295,947683000,,-0.0005882374243810773,-0.0004165919090155512,0.0002468596212565899,-0.38865354657173157,-0.001566793187521398,-0.0010634158970788121,0.9213820695877075,-0.001779115409590304,0.007561789359897375,0.002014592057093978,-0.06500884145498276,-0.05279689282178879,0.03268534690141678
1678956295.9641593,94,1678956295,947683000,,-0.0005882374243810773,-0.0004165919090155512,0.0002468596212565899,-0.38865354657173157,-0.001566793187521398,-0.0010634158970788121,0.9213820695877075,-0.001779115409590304,0.007561789359897375,0.002014592057093978,-0.06500884145498276,-0.05279689282178879,0.03268534690141678
1678956295.966568,95,1678956295,947683000,,-0.0005882374243810773,-0.0004165919090155512,0.0002468596212565899,-0.38865354657173157,-0.001566793187521398,-0.0010634158970788121,0.9213820695877075,-0.001779115409590304,0.007561789359897375,0.002014592057093978,-0.06500884145498276,-0.05279689282178879,0.03268534690141678
1678956295.9692307,96,1678956295,966559000,,-0.0005513462238013744,-0.0003053792752325535,0.0005881999968551099,-0.38892582058906555,-0.0015491002704948187,-0.0009043983882293105,0.9212673306465149,0.00040894202538765967,0.004183882847428322,0.0033020838163793087,0.05224230885505676,-0.05780354142189026,-0.02432756870985031
1678956295.9720092,97,1678956295,966559000,,-0.0005513462238013744,-0.0003053792752325535,0.0005881999968551099,-0.38892582058906555,-0.0015491002704948187,-0.0009043983882293105,0.9212673306465149,0.00040894202538765967,0.004183882847428322,0.0033020838163793087,0.05224230885505676,-0.05780354142189026,-0.02432756870985031
1678956295.9794145,98,1678956295,966559000,,-0.0005513462238013744,-0.0003053792752325535,0.0005881999968551099,-0.38892582058906555,-0.0015491002704948187,-0.0009043983882293105,0.9212673306465149,0.00040894202538765967,0.004183882847428322,0.0033020838163793087,0.05224230885505676,-0.05780354142189026,-0.02432756870985031
1678956295.9822316,99,1678956295,966559000,,-0.0005513462238013744,-0.0003053792752325535,0.0005881999968551099,-0.38892582058906555,-0.0015491002704948187,-0.0009043983882293105,0.9212673306465149,0.00040894202538765967,0.004183882847428322,0.0033020838163793087,0.05224230885505676,-0.05780354142189026,-0.02432756870985031
1678956295.986122,100,1678956295,981658000,,-0.0005417350330390036,-0.000613556825555861,0.00044269501813687384,-0.38900357484817505,-0.001681385445408523,-0.0010904723312705755,0.9212340712547302,-0.002257081912830472,-0.025609899312257767,0.014309131540358067,-0.142052561044693,0.06881138682365417,0.021258817985653877
1678956295.9903164,101,1678956295,981658000,,-0.0005417350330390036,-0.000613556825555861,0.00044269501813687384,-0.38900357484817505,-0.001681385445408523,-0.0010904723312705755,0.9212340712547302,-0.002257081912830472,-0.025609899312257767,0.014309131540358067,-0.142052561044693,0.06881138682365417,0.021258817985653877
1678956295.992427,102,1678956295,988007000,,-0.0005534011870622635,-0.0007815927383489907,0.000486514822114259,-0.3891730010509491,-0.001535790041089058,-0.0010294526582583785,0.9211628437042236,-0.002973496448248625,-0.03318426385521889,0.016640707850456238,0.004017213825136423,0.016950445249676704,0.005906843580305576
1678956295.9955676,103,1678956295,988007000,,-0.0005534011870622635,-0.0007815927383489907,0.000486514822114259,-0.3891730010509491,-0.001535790041089058,-0.0010294526582583785,0.9211628437042236,-0.002973496448248625,-0.03318426385521889,0.016640707850456238,0.004017213825136423,0.016950445249676704,0.005906843580305576
1678956295.9973254,104,1678956295,996089000,,-0.0005686189979314804,-0.0005663796910084784,0.0005313619622029364,-0.3892146944999695,-0.0017185669858008623,-0.0011663457844406366,0.9211447834968567,-0.0024469841737300158,0.011341389268636703,0.010613773949444294,0.04909449443221092,-0.04327762499451637,-0.04106595739722252
1678956296.000001,105,1678956295,996089000,,-0.0005686189979314804,-0.0005663796910084784,0.0005313619622029364,-0.3892146944999695,-0.0017185669858008623,-0.0011663457844406366,0.9211447834968567,-0.0024469841737300158,0.011341389268636703,0.010613773949444294,0.04909449443221092,-0.04327762499451637,-0.04106595739722252
1678956296.001028,106,1678956295,996089000,,-0.0005686189979314804,-0.0005663796910084784,0.0005313619622029364,-0.3892146944999695,-0.0017185669858008623,-0.0011663457844406366,0.9211447834968567,-0.0024469841737300158,0.011341389268636703,0.010613773949444294,0.04909449443221092,-0.04327762499451637,-0.04106595739722252
1678956296.0036244,107,1678956296,2771000,,-0.0005810252041555941,-0.00046964825014583766,0.0005797275225631893,-0.3889574706554413,-0.0017166069010272622,-0.0012452451046556234,0.9212532639503479,-0.0026769887190312147,0.020407266914844513,0.010969365015625954,0.11712446063756943,0.02521473914384842,-0.00420945743098855
1678956296.0072043,108,1678956296,2771000,,-0.0005810252041555941,-0.00046964825014583766,0.0005797275225631893,-0.3889574706554413,-0.0017166069010272622,-0.0012452451046556234,0.9212532639503479,-0.0026769887190312147,0.020407266914844513,0.010969365015625954,0.11712446063756943,0.02521473914384842,-0.00420945743098855
1678956296.0114808,109,1678956296,8092000,,-0.0005942665156908333,-0.0003423828457016498,0.0006103075575083494,-0.3888431489467621,-0.0016478089382871985,-0.0011416103225201368,0.9213017821311951,-0.002900553634390235,0.02886233665049076,0.010429079644382,-0.03528757765889168,0.0361933708190918,0.05500154197216034
1678956296.0143723,110,1678956296,8092000,,-0.0005942665156908333,-0.0003423828457016498,0.0006103075575083494,-0.3888431489467621,-0.0016478089382871985,-0.0011416103225201368,0.9213017821311951,-0.002900553634390235,0.02886233665049076,0.010429079644382,-0.03528757765889168,0.0361933708190918,0.05500154197216034
1678956296.0187616,111,1678956296,14919000,,-0.0005530515918508172,-0.0008323208312503994,0.00027918440173380077,-0.3890511393547058,-0.0015958003932610154,-0.000914192758500576,0.9212143421173096,-0.0008066691225394607,-0.038179680705070496,-0.007952224463224411,-0.06570766866207123,-0.044930897653102875,-0.024276643991470337
1678956296.0225148,112,1678956296,14919000,,-0.0005530515918508172,-0.0008323208312503994,0.00027918440173380077,-0.3890511393547058,-0.0015958003932610154,-0.000914192758500576,0.9212143421173096,-0.0008066691225394607,-0.038179680705070496,-0.007952224463224411,-0.06570766866207123,-0.044930897653102875,-0.024276643991470337
1678956296.0259414,113,1678956296,14919000,,-0.0005530515918508172,-0.0008323208312503994,0.00027918440173380077,-0.3890511393547058,-0.0015958003932610154,-0.000914192758500576,0.9212143421173096,-0.0008066691225394607,-0.038179680705070496,-0.007952224463224411,-0.06570766866207123,-0.044930897653102875,-0.024276643991470337
1678956296.029604,114,1678956296,24467000,,-0.0005563657614402473,-0.0010336939012631774,0.00022085044474806637,-0.3891777992248535,-0.00174888432957232,-0.0009807809256017208,0.9211605787277222,-0.0007321370649151504,-0.0456896610558033,-0.010353517718613148,0.0031901008915156126,-0.07193140685558319,0.03548391908407211
1678956296.0327573,115,1678956296,24467000,,-0.0005563657614402473,-0.0010336939012631774,0.00022085044474806637,-0.3891777992248535,-0.00174888432957232,-0.0009807809256017208,0.9211605787277222,-0.0007321370649151504,-0.0456896610558033,-0.010353517718613148,0.0031901008915156126,-0.07193140685558319,0.03548391908407211
1678956296.036159,116,1678956296,32287000,,-0.0006133129936642945,-0.0005841156817041337,0.00036183561314828694,-0.389065146446228,-0.00186453596688807,-0.0009014895185828209,0.9212079644203186,-0.006158663425594568,0.01667523942887783,0.007096948567777872,0.04517107456922531,0.03823990747332573,0.02835432067513466
1678956296.0390053,117,1678956296,32287000,,-0.0006133129936642945,-0.0005841156817041337,0.00036183561314828694,-0.389065146446228,-0.00186453596688807,-0.0009014895185828209,0.9212079644203186,-0.006158663425594568,0.01667523942887783,0.007096948567777872,0.04517107456922531,0.03823990747332573,0.02835432067513466
1678956296.041511,118,1678956296,39371000,,-0.000690947868861258,-0.00028341342112980783,0.0004611866024788469,-0.38880157470703125,-0.0014841263182461262,-0.0008688968955539167,0.9213199615478516,-0.00931917317211628,0.04313230514526367,0.013422983698546886,0.057885050773620605,0.01861060969531536,-0.015872085466980934
1678956296.0460465,119,1678956296,41560000,,-0.0006777308881282806,-0.0004593116173055023,0.0004083334351889789,-0.38887420296669006,-0.0015532128745689988,-0.0008833366446197033,0.9212892055511475,-0.0017927160952240229,-0.004577121697366238,-0.001486491528339684,-0.16188865900039673,-0.06824404746294022,0.007284845225512981
1678956296.0511644,120,1678956296,47861000,,-0.0006817183457314968,-0.0005100196576677263,0.0003952639235649258,-0.38924601674079895,-0.0017147682374343276,-0.0009666817495599389,0.9211317896842957,0.0002592909731902182,-0.015879670158028603,-0.004543005488812923,-0.026576969772577286,-0.051465220749378204,-0.01772068440914154
1678956296.0526788,121,1678956296,47861000,,-0.0006817183457314968,-0.0005100196576677263,0.0003952639235649258,-0.38924601674079895,-0.0017147682374343276,-0.0009666817495599389,0.9211317896842957,0.0002592909731902182,-0.015879670158028603,-0.004543005488812923,-0.026576969772577286,-0.051465220749378204,-0.01772068440914154
1678956296.0587895,122,1678956296,54118000,,-0.0003649040008895099,-0.0007116351625882089,-6.739281525369734e-05,-0.3891124725341797,-0.0017577421385794878,-0.0011378936469554901,0.9211879372596741,0.005443150177598,0.005012410692870617,-0.00868859514594078,-0.10773447901010513,0.0008841576054692268,0.06644415110349655
1678956296.0623562,123,1678956296,54118000,,-0.0003649040008895099,-0.0007116351625882089,-6.739281525369734e-05,-0.3891124725341797,-0.0017577421385794878,-0.0011378936469554901,0.9211879372596741,0.005443150177598,0.005012410692870617,-0.00868859514594078,-0.10773447901010513,0.0008841576054692268,0.06644415110349655
1678956296.0652544,124,1678956296,54118000,,-0.0003649040008895099,-0.0007116351625882089,-6.739281525369734e-05,-0.3891124725341797,-0.0017577421385794878,-0.0011378936469554901,0.9211879372596741,0.005443150177598,0.005012410692870617,-0.00868859514594078,-0.10773447901010513,0.0008841576054692268,0.06644415110349655
1678956296.0665555,125,1678956296,54118000,,-0.0003649040008895099,-0.0007116351625882089,-6.739281525369734e-05,-0.3891124725341797,-0.0017577421385794878,-0.0011378936469554901,0.9211879372596741,0.005443150177598,0.005012410692870617,-0.00868859514594078,-0.10773447901010513,0.0008841576054692268,0.06644415110349655
1678956296.0717576,126,1678956296,69029000,,-0.0002890015603043139,-0.0007035512826405466,-0.00016412787954322994,-0.3887048661708832,-0.0016253264620900154,-0.0012007418554276228,0.9213601350784302,0.004702931735664606,-0.015380961820483208,-0.012927073985338211,-0.010086613707244396,-0.024590082466602325,0.0005935984663665295
1678956296.0764644,127,1678956296,75357000,,-0.0002661623293533921,-0.0008159323479048908,-0.00023789559782017022,-0.3889893591403961,-0.0017333730356767774,-0.0011631946545094252,0.921239972114563,0.004473410546779633,-0.027022672817111015,-0.01679546944797039,-0.17211078107357025,-0.04572990536689758,0.040825143456459045
1678956296.0789657,128,1678956296,75357000,,-0.0002661623293533921,-0.0008159323479048908,-0.00023789559782017022,-0.3889893591403961,-0.0017333730356767774,-0.0011631946545094252,0.921239972114563,0.004473410546779633,-0.027022672817111015,-0.01679546944797039,-0.17211078107357025,-0.04572990536689758,0.040825143456459045
1678956296.0815141,129,1678956296,75357000,,-0.0002661623293533921,-0.0008159323479048908,-0.00023789559782017022,-0.3889893591403961,-0.0017333730356767774,-0.0011631946545094252,0.921239972114563,0.004473410546779633,-0.027022672817111015,-0.01679546944797039,-0.17211078107357025,-0.04572990536689758,0.040825143456459045
1678956296.084555,130,1678956296,75357000,,-0.0002661623293533921,-0.0008159323479048908,-0.00023789559782017022,-0.3889893591403961,-0.0017333730356767774,-0.0011631946545094252,0.921239972114563,0.004473410546779633,-0.027022672817111015,-0.01679546944797039,-0.17211078107357025,-0.04572990536689758,0.040825143456459045
1678956296.0880706,131,1678956296,75357000,,-0.0002661623293533921,-0.0008159323479048908,-0.00023789559782017022,-0.3889893591403961,-0.0017333730356767774,-0.0011631946545094252,0.921239972114563,0.004473410546779633,-0.027022672817111015,-0.01679546944797039,-0.17211078107357025,-0.04572990536689758,0.040825143456459045
1678956296.0953612,132,1678956296,89740000,,-0.0005458128871396184,-0.0012196172028779984,1.8646025637281127e-05,-0.38895660638809204,-0.001791289891116321,-0.001138404244557023,0.9212536215782166,-0.0015900571597740054,-0.07048729062080383,-0.02546929381787777,0.03354515880346298,0.009219387546181679,-0.015469199046492577
1678956296.0986986,133,1678956296,89740000,,-0.0005458128871396184,-0.0012196172028779984,1.8646025637281127e-05,-0.38895660638809204,-0.001791289891116321,-0.001138404244557023,0.9212536215782166,-0.0015900571597740054,-0.07048729062080383,-0.02546929381787777,0.03354515880346298,0.009219387546181679,-0.015469199046492577
1678956296.0996778,134,1678956296,98890000,,-0.0005679326714016497,-0.0009261638042517006,0.00018204536172561347,-0.38898026943206787,-0.0016864293720573187,-0.0011410373263061047,0.9212439060211182,-0.0024583761114627123,0.00354547961615026,0.005577370524406433,-0.13009695708751678,-0.024608472362160683,0.032807737588882446
1678956296.1039715,135,1678956296,99858000,,-0.0005876718205399811,-0.0012805464211851358,-3.980872861575335e-05,-0.3886994421482086,-0.0016798600554466248,-0.0011448611039668322,0.9213624000549316,-0.0018776250071823597,-0.03626428544521332,-0.0224175825715065,0.132686585187912,0.027151133865118027,-0.0060196067206561565
1678956296.105094,136,1678956296,99858000,,-0.0005876718205399811,-0.0012805464211851358,-3.980872861575335e-05,-0.3886994421482086,-0.0016798600554466248,-0.0011448611039668322,0.9213624000549316,-0.0018776250071823597,-0.03626428544521332,-0.0224175825715065,0.132686585187912,0.027151133865118027,-0.0060196067206561565
1678956296.1077216,137,1678956296,106595000,,-0.000596694415435195,-0.0014976691454648972,-0.00017358901095576584,-0.38868585228919983,-0.0017034744378179312,-0.0010668059112504125,0.9213681817054749,-0.0017079258104786277,-0.04850396886467934,-0.031490497291088104,-0.10332216322422028,-0.022201748564839363,0.060991667211055756
1678956296.1112778,138,1678956296,106595000,,-0.000596694415435195,-0.0014976691454648972,-0.00017358901095576584,-0.38868585228919983,-0.0017034744378179312,-0.0010668059112504125,0.9213681817054749,-0.0017079258104786277,-0.04850396886467934,-0.031490497291088104,-0.10332216322422028,-0.022201748564839363,0.060991667211055756
1678956296.1128566,139,1678956296,106595000,,-0.000596694415435195,-0.0014976691454648972,-0.00017358901095576584,-0.38868585228919983,-0.0017034744378179312,-0.0010668059112504125,0.9213681817054749,-0.0017079258104786277,-0.04850396886467934,-0.031490497291088104,-0.10332216322422028,-0.022201748564839363,0.060991667211055756
1678956296.1157742,140,1678956296,112892000,,-0.0006046677590347826,-0.001761328661814332,-0.00034561313805170357,-0.38891473412513733,-0.0017813078593462706,-0.0009942272445186973,0.9212715029716492,-0.0015384447760879993,-0.06154485046863556,-0.041114646941423416,-0.019546259194612503,0.01206834428012371,-0.01675538904964924
1678956296.1189065,141,1678956296,112892000,,-0.0006046677590347826,-0.001761328661814332,-0.00034561313805170357,-0.38891473412513733,-0.0017813078593462706,-0.0009942272445186973,0.9212715029716492,-0.0015384447760879993,-0.06154485046863556,-0.041114646941423416,-0.019546259194612503,0.01206834428012371,-0.01675538904964924
1678956296.1215363,142,1678956296,118727000,,-0.0006112336996011436,-0.0017382616642862558,-0.00033418030943721533,-0.3887743353843689,-0.001691000652499497,-0.0010670616757124662,0.9213308691978455,-0.0012853730004280806,-0.023844297975301743,-0.017177889123558998,0.08689380437135696,-0.0022304828744381666,-0.014277292415499687
1678956296.123994,143,1678956296,118727000,,-0.0006112336996011436,-0.0017382616642862558,-0.00033418030943721533,-0.3887743353843689,-0.001691000652499497,-0.0010670616757124662,0.9213308691978455,-0.0012853730004280806,-0.023844297975301743,-0.017177889123558998,0.08689380437135696,-0.0022304828744381666,-0.014277292415499687
1678956296.1257617,144,1678956296,118727000,,-0.0006112336996011436,-0.0017382616642862558,-0.00033418030943721533,-0.3887743353843689,-0.001691000652499497,-0.0010670616757124662,0.9213308691978455,-0.0012853730004280806,-0.023844297975301743,-0.017177889123558998,0.08689380437135696,-0.0022304828744381666,-0.014277292415499687
1678956296.1279807,145,1678956296,118727000,,-0.0006112336996011436,-0.0017382616642862558,-0.00033418030943721533,-0.3887743353843689,-0.001691000652499497,-0.0010670616757124662,0.9213308691978455,-0.0012853730004280806,-0.023844297975301743,-0.017177889123558998,0.08689380437135696,-0.0022304828744381666,-0.014277292415499687
1678956296.1295466,146,1678956296,118727000,,-0.0006112336996011436,-0.0017382616642862558,-0.00033418030943721533,-0.3887743353843689,-0.001691000652499497,-0.0010670616757124662,0.9213308691978455,-0.0012853730004280806,-0.023844297975301743,-0.017177889123558998,0.08689380437135696,-0.0022304828744381666,-0.014277292415499687
1678956296.1320045,147,1678956296,118727000,,-0.0006112336996011436,-0.0017382616642862558,-0.00033418030943721533,-0.3887743353843689,-0.001691000652499497,-0.0010670616757124662,0.9213308691978455,-0.0012853730004280806,-0.023844297975301743,-0.017177889123558998,0.08689380437135696,-0.0022304828744381666,-0.014277292415499687
1678956296.134374,148,1678956296,133408000,,-0.0005236685392446816,0.00034172344021499157,0.0007232390926219523,-0.38888365030288696,-0.0019273099023848772,-0.0009838877012953162,0.9212843775749207,0.0009580837795510888,0.05327516049146652,0.030700836330652237,0.18251504004001617,0.02470451593399048,-0.047651566565036774
1678956296.137465,149,1678956296,133408000,,-0.0005236685392446816,0.00034172344021499157,0.0007232390926219523,-0.38888365030288696,-0.0019273099023848772,-0.0009838877012953162,0.9212843775749207,0.0009580837795510888,0.05327516049146652,0.030700836330652237,0.18251504004001617,0.02470451593399048,-0.047651566565036774
1678956296.1431196,150,1678956296,133408000,,-0.0005236685392446816,0.00034172344021499157,0.0007232390926219523,-0.38888365030288696,-0.0019273099023848772,-0.0009838877012953162,0.9212843775749207,0.0009580837795510888,0.05327516049146652,0.030700836330652237,0.18251504004001617,0.02470451593399048,-0.047651566565036774
1678956296.1481087,151,1678956296,141438000,,-0.0005649480153806508,3.588410618249327e-05,0.00047017401084303856,-0.38889673352241516,-0.0018963376060128212,-0.0009158048778772354,0.9212789535522461,-0.003030584193766117,-0.0035664886236190796,-0.008356566540896893,-0.06902669370174408,-0.021965770050883293,0.03507455065846443
1678956296.1507123,152,1678956296,146649000,,-0.0005820156075060368,6.675029908365104e-06,0.0004108048742637038,-0.38888630270957947,-0.0019339267164468765,-0.0009155388106592,0.9212833046913147,-0.003822386497631669,-0.010316871106624603,-0.014285843819379807,0.05337013676762581,0.001055259257555008,-0.01012399047613144
1678956296.1533902,153,1678956296,146649000,,-0.0005820156075060368,6.675029908365104e-06,0.0004108048742637038,-0.38888630270957947,-0.0019339267164468765,-0.0009155388106592,0.9212833046913147,-0.003822386497631669,-0.010316871106624603,-0.014285843819379807,0.05337013676762581,0.001055259257555008,-0.01012399047613144
1678956296.1561995,154,1678956296,152932000,,-0.0005208385409787297,-0.00024382038100156933,0.00044220336712896824,-0.38850870728492737,-0.0018327905563637614,-0.0009808024624362588,0.9214427471160889,0.0015790940960869193,0.019810577854514122,0.011995595879852772,-0.01257458608597517,-0.006603735964745283,0.020553357899188995
1678956296.159294,155,1678956296,152932000,,-0.0005208385409787297,-0.00024382038100156933,0.00044220336712896824,-0.38850870728492737,-0.0018327905563637614,-0.0009808024624362588,0.9214427471160889,0.0015790940960869193,0.019810577854514122,0.011995595879852772,-0.01257458608597517,-0.006603735964745283,0.020553357899188995
1678956296.1627655,156,1678956296,152932000,,-0.0005208385409787297,-0.00024382038100156933,0.00044220336712896824,-0.38850870728492737,-0.0018327905563637614,-0.0009808024624362588,0.9214427471160889,0.0015790940960869193,0.019810577854514122,0.011995595879852772,-0.01257458608597517,-0.006603735964745283,0.020553357899188995
1678956296.1641781,157,1678956296,152932000,,-0.0005208385409787297,-0.00024382038100156933,0.00044220336712896824,-0.38850870728492737,-0.0018327905563637614,-0.0009808024624362588,0.9214427471160889,0.0015790940960869193,0.019810577854514122,0.011995595879852772,-0.01257458608597517,-0.006603735964745283,0.020553357899188995
1678956296.1701045,158,1678956296,168209000,,-0.0005498129175975919,-3.1848030630499125e-05,0.0005506174638867378,-0.3883594572544098,-0.0017866176785901189,-0.0008980242419056594,0.9215058088302612,-0.003708395641297102,0.014231196604669094,0.006031817756593227,0.03520812466740608,0.03245922923088074,-0.06957106292247772
1678956296.1717465,159,1678956296,168209000,,-0.0005498129175975919,-3.1848030630499125e-05,0.0005506174638867378,-0.3883594572544098,-0.0017866176785901189,-0.0008980242419056594,0.9215058088302612,-0.003708395641297102,0.014231196604669094,0.006031817756593227,0.03520812466740608,0.03245922923088074,-0.06957106292247772
1678956296.174236,160,1678956296,168209000,,-0.0005498129175975919,-3.1848030630499125e-05,0.0005506174638867378,-0.3883594572544098,-0.0017866176785901189,-0.0008980242419056594,0.9215058088302612,-0.003708395641297102,0.014231196604669094,0.006031817756593227,0.03520812466740608,0.03245922923088074,-0.06957106292247772
1678956296.17731,161,1678956296,168209000,,-0.0005498129175975919,-3.1848030630499125e-05,0.0005506174638867378,-0.3883594572544098,-0.0017866176785901189,-0.0008980242419056594,0.9215058088302612,-0.003708395641297102,0.014231196604669094,0.006031817756593227,0.03520812466740608,0.03245922923088074,-0.06957106292247772
1678956296.179777,162,1678956296,168209000,,-0.0005498129175975919,-3.1848030630499125e-05,0.0005506174638867378,-0.3883594572544098,-0.0017866176785901189,-0.0008980242419056594,0.9215058088302612,-0.003708395641297102,0.014231196604669094,0.006031817756593227,0.03520812466740608,0.03245922923088074,-0.06957106292247772
1678956296.1811643,163,1678956296,168209000,,-0.0005498129175975919,-3.1848030630499125e-05,0.0005506174638867378,-0.3883594572544098,-0.0017866176785901189,-0.0008980242419056594,0.9215058088302612,-0.003708395641297102,0.014231196604669094,0.006031817756593227,0.03520812466740608,0.03245922923088074,-0.06957106292247772
1678956296.1835368,164,1678956296,181982000,,-0.0005724650109186769,2.5767405531951226e-05,0.0005707673844881356,-0.38833969831466675,-0.0017371568828821182,-0.0010169752640649676,0.921514093875885,-0.005329467356204987,0.011420764029026031,0.0035109638702124357,-0.011258373968303204,-0.0499313622713089,-0.0038455165922641754
1678956296.1861863,165,1678956296,184205000,,-0.0006633151206187904,-8.084002183750272e-05,0.00023326982045546174,-0.3886082172393799,-0.0021073182579129934,-0.0009304919512942433,0.9214001893997192,-0.00973686296492815,0.016057200729846954,-0.0039681135676801205,0.03095891699194908,0.030766768380999565,0.011478479020297527
1678956296.1892433,166,1678956296,184205000,,-0.0006633151206187904,-8.084002183750272e-05,0.00023326982045546174,-0.3886082172393799,-0.0021073182579129934,-0.0009304919512942433,0.9214001893997192,-0.00973686296492815,0.016057200729846954,-0.0039681135676801205,0.03095891699194908,0.030766768380999565,0.011478479020297527
1678956296.1908038,167,1678956296,184205000,,-0.0006633151206187904,-8.084002183750272e-05,0.00023326982045546174,-0.3886082172393799,-0.0021073182579129934,-0.0009304919512942433,0.9214001893997192,-0.00973686296492815,0.016057200729846954,-0.0039681135676801205,0.03095891699194908,0.030766768380999565,0.011478479020297527
1678956296.1929657,168,1678956296,184205000,,-0.0006633151206187904,-8.084002183750272e-05,0.00023326982045546174,-0.3886082172393799,-0.0021073182579129934,-0.0009304919512942433,0.9214001893997192,-0.00973686296492815,0.016057200729846954,-0.0039681135676801205,0.03095891699194908,0.030766768380999565,0.011478479020297527
1678956296.1968083,169,1678956296,184205000,,-0.0006633151206187904,-8.084002183750272e-05,0.00023326982045546174,-0.3886082172393799,-0.0021073182579129934,-0.0009304919512942433,0.9214001893997192,-0.00973686296492815,0.016057200729846954,-0.0039681135676801205,0.03095891699194908,0.030766768380999565,0.011478479020297527
1678956296.1979842,170,1678956296,184205000,,-0.0006633151206187904,-8.084002183750272e-05,0.00023326982045546174,-0.3886082172393799,-0.0021073182579129934,-0.0009304919512942433,0.9214001893997192,-0.00973686296492815,0.016057200729846954,-0.0039681135676801205,0.03095891699194908,0.030766768380999565,0.011478479020297527
1678956296.200243,171,1678956296,184205000,,-0.0006633151206187904,-8.084002183750272e-05,0.00023326982045546174,-0.3886082172393799,-0.0021073182579129934,-0.0009304919512942433,0.9214001893997192,-0.00973686296492815,0.016057200729846954,-0.0039681135676801205,0.03095891699194908,0.030766768380999565,0.011478479020297527
1678956296.2035222,172,1678956296,201732000,,-0.0008162216981872916,0.0004647515306714922,9.335582581115887e-05,-0.38803839683532715,-0.00203708210028708,-0.000930899113882333,0.9216404557228088,-0.009751858189702034,0.032281722873449326,-0.007796999532729387,0.17927393317222595,-0.04289177805185318,-0.02594403363764286
1678956296.205299,173,1678956296,201732000,,-0.0008162216981872916,0.0004647515306714922,9.335582581115887e-05,-0.38803839683532715,-0.00203708210028708,-0.000930899113882333,0.9216404557228088,-0.009751858189702034,0.032281722873449326,-0.007796999532729387,0.17927393317222595,-0.04289177805185318,-0.02594403363764286
1678956296.2086568,174,1678956296,201732000,,-0.0008162216981872916,0.0004647515306714922,9.335582581115887e-05,-0.38803839683532715,-0.00203708210028708,-0.000930899113882333,0.9216404557228088,-0.009751858189702034,0.032281722873449326,-0.007796999532729387,0.17927393317222595,-0.04289177805185318,-0.02594403363764286
1678956296.2113616,175,1678956296,201732000,,-0.0008162216981872916,0.0004647515306714922,9.335582581115887e-05,-0.38803839683532715,-0.00203708210028708,-0.000930899113882333,0.9216404557228088,-0.009751858189702034,0.032281722873449326,-0.007796999532729387,0.17927393317222595,-0.04289177805185318,-0.02594403363764286
1678956296.2136302,176,1678956296,210469000,,-0.0008663841290399432,0.0006212117150425911,3.98199881601613e-05,-0.38794201612472534,-0.0021522659808397293,-0.0009077683207578957,0.9216808080673218,-0.010243745520710945,0.03480501472949982,-0.009323414415121078,-0.13681747019290924,-0.01959107257425785,0.06378456950187683
1678956296.2157977,177,1678956296,210469000,,-0.0008663841290399432,0.0006212117150425911,3.98199881601613e-05,-0.38794201612472534,-0.0021522659808397293,-0.0009077683207578957,0.9216808080673218,-0.010243745520710945,0.03480501472949982,-0.009323414415121078,-0.13681747019290924,-0.01959107257425785,0.06378456950187683
1678956296.2189069,178,1678956296,216748000,,-0.0005786656984128058,-7.434684448526241e-06,0.0003381378191988915,-0.3879720866680145,-0.0022541661746799946,-0.0005432672915048897,0.9216682314872742,-0.003255147486925125,0.012701557949185371,0.005813840311020613,0.062051087617874146,0.05134405940771103,0.03017033450305462
1678956296.2220964,179,1678956296,216748000,,-0.0005786656984128058,-7.434684448526241e-06,0.0003381378191988915,-0.3879720866680145,-0.0022541661746799946,-0.0005432672915048897,0.9216682314872742,-0.003255147486925125,0.012701557949185371,0.005813840311020613,0.062051087617874146,0.05134405940771103,0.03017033450305462
1678956296.2249198,180,1678956296,216748000,,-0.0005786656984128058,-7.434684448526241e-06,0.0003381378191988915,-0.3879720866680145,-0.0022541661746799946,-0.0005432672915048897,0.9216682314872742,-0.003255147486925125,0.012701557949185371,0.005813840311020613,0.062051087617874146,0.05134405940771103,0.03017033450305462
1678956296.2267776,181,1678956296,216748000,,-0.0005786656984128058,-7.434684448526241e-06,0.0003381378191988915,-0.3879720866680145,-0.0022541661746799946,-0.0005432672915048897,0.9216682314872742,-0.003255147486925125,0.012701557949185371,0.005813840311020613,0.062051087617874146,0.05134405940771103,0.03017033450305462
1678956296.2291396,182,1678956296,216748000,,-0.0005786656984128058,-7.434684448526241e-06,0.0003381378191988915,-0.3879720866680145,-0.0022541661746799946,-0.0005432672915048897,0.9216682314872742,-0.003255147486925125,0.012701557949185371,0.005813840311020613,0.062051087617874146,0.05134405940771103,0.03017033450305462
1678956296.2344654,183,1678956296,232868000,,-0.0005973054794594646,0.0003138741885777563,0.0002761807991191745,-0.38736623525619507,-0.002339249011129141,-0.0005604585167020559,0.9219228625297546,-0.0009390351478941739,0.02536577545106411,-0.00444086454808712,0.20060569047927856,-0.033530957996845245,-0.015088535845279694
